
[{"id":"4","icono":"0","nombre":"Reserva el Rincon","lat":"-4.250143","lng":"40.307398","html":"<a href='http:\/\/www.furgovw.org\/index.php?topic=178.0' align=center>Reserva el Rinc\u00f3n<\/a><br><img src='http:\/\/img312.imageshack.us\/img312\/3355\/sanjuanqw3.jpg' width=200 height=134>","htmlp":"<img src='http:\/\/img312.imageshack.us\/img312\/3355\/sanjuanqw3.jpg' width=200 height=134><br>Click para mas info","link":"http:\/\/www.furgovw.org\/index.php?topic=178.0","imagen":"http:\/\/img312.imageshack.us\/img312\/3355\/sanjuanqw3.jpg","autor":"aye","ancho":"200","alto":"134","destomtom":"Gratuito; Agua: no; Wc: no","id_member":"35","date":null,"topic_id":"178"},{"id":"7","icono":"2","nombre":"Via verde del Valle de Turon","lat":"-5.670319","lng":"43.217937","html":"<div style='width: 200px'><img src='http:\/\/img307.imageshack.us\/img307\/4625\/viaverdemieresgz0.jpg' width=102 height=152 align=left><a href='http:\/\/www.ffe.es\/viasverdes\/viasv_htm\/vv_turon.htm'>V\u00eda verde del Valle de Tur\u00f3n<\/a><\/div>","htmlp":"<img src='http:\/\/img307.imageshack.us\/img307\/4625\/viaverdemieresgz0.jpg' width=102 height=152 align=bottom>Click para mas info.","link":"http:\/\/www.ffe.es\/viasverdes\/viasv_htm\/vv_turon.htm","imagen":"http:\/\/img307.imageshack.us\/img307\/4625\/viaverdemieresgz0.jpg","autor":"kalimocho","ancho":"102","alto":"152","destomtom":null,"id_member":"4","date":null,"topic_id":null},{"id":"8","icono":"0","nombre":"Orozko (Parque Natural Gorbea)","lat":"-2.837995","lng":"43.063881","html":"<a href='http:\/\/www.furgovw.org\/index.php?topic=1074.0' align=center>Parque Natural Gorbea<\/a><br><img src='http:\/\/img511.imageshack.us\/img511\/4400\/orozkout9.jpg' width=305 height=87>","htmlp":"<img src='http:\/\/img511.imageshack.us\/img511\/4400\/orozkout9.jpg' width=305 height=87><br>Click para mas info","link":"http:\/\/www.furgovw.org\/index.php?topic=1074.0","imagen":"http:\/\/img511.imageshack.us\/img511\/4400\/orozkout9.jpg","autor":"akelarre","ancho":"242","alto":"105","destomtom":"(Gratuito;Agua:si;Wc:no)","id_member":"220","date":null,"topic_id":"1074"},{"id":"11","icono":"0","nombre":"Selva de Irati-Arrazola","lat":"-1.20833","lng":"43.00139","html":"<a href='http:\/\/www.furgovw.org\/index.php?topic=945.0' align=center>Selva de Irati<\/a><br><img src='http:\/\/img507.imageshack.us\/img507\/2409\/selvairatima3.jpg' width=305 height=87>","htmlp":"<img src='http:\/\/img507.imageshack.us\/img507\/2409\/selvairatima3.jpg' width=305 height=87><br>Click para mas info","link":"http:\/\/www.furgovw.org\/index.php?topic=945.0","imagen":"http:\/\/img507.imageshack.us\/img507\/2409\/selvairatima3.jpg","autor":"Tartalo","ancho":"252","alto":"94","destomtom":"Agua SI-WC SI-Vaciado SI-Gratis","id_member":"620","date":null,"topic_id":"945"},{"id":"13","icono":"0","nombre":"Tablas de Daimiel","lat":"-3.696975","lng":"39.13827","html":"<a href='http:\/\/www.furgovw.org\/index.php?topic=233.0' align=center>Tablas de Daimiel<\/a><br><img src='http:\/\/img235.imageshack.us\/img235\/88\/tablasdedaimielam9.jpg' width=278 height=72>","htmlp":"<img src='http:\/\/img235.imageshack.us\/img235\/88\/tablasdedaimielam9.jpg' width=278 height=72><br>Click para mas info","link":"http:\/\/www.furgovw.org\/index.php?topic=233.0","imagen":"http:\/\/img235.imageshack.us\/img235\/88\/tablasdedaimielam9.jpg","autor":"manurro","ancho":"278","alto":"72","destomtom":"Gratuito; Agua: si; Wc: si","id_member":"288","date":null,"topic_id":"233"},{"id":"15","icono":"1","nombre":"Area Ac Morella","lat":"-0.091439","lng":"40.624066","html":"<a href='http:\/\/www.furgovw.org\/index.php?topic=210.0' align=center>Morella<\/a><br><img src='http:\/\/img158.imageshack.us\/img158\/4784\/morellagk6.jpg' width=225 height=92>","htmlp":"<img src='http:\/\/img158.imageshack.us\/img158\/4784\/morellagk6.jpg' width=225 height=92><br>Click para mas info","link":"http:\/\/www.furgovw.org\/index.php?topic=210.0","imagen":"http:\/\/img158.imageshack.us\/img158\/4784\/morellagk6.jpg","autor":"ALCASA","ancho":"225","alto":"92","destomtom":"(Gratuito;Agua:si;Wc:no)","id_member":"146","date":null,"topic_id":"210"},{"id":"20","icono":"0","nombre":"Guardetxe (Aralar)","lat":"-2.00279","lng":"42.95693","html":"<a href='http:\/\/www.furgovw.org\/index.php?topic=51.0' align=center>Guardetxe-Aralar<\/a><br><img src='http:\/\/i19.photobucket.com\/albums\/b182\/Luismabike\/FurgoGuardetxe\/IMG_0006-640.jpg' width=306 height=82>","htmlp":"<img src='http:\/\/i19.photobucket.com\/albums\/b182\/Luismabike\/FurgoGuardetxe\/IMG_0006-640.jpg' width=306 height=82><br>Click para mas info","link":"http:\/\/www.furgovw.org\/index.php?topic=51.0","imagen":"http:\/\/img519.imageshack.us\/img519\/4984\/guardetxearalarle6.jpg","autor":"Luisma","ancho":"160","alto":"120","destomtom":"Gratuito;Agua:si;Wc:no","id_member":"7","date":null,"topic_id":"51"},{"id":"21","icono":"0","nombre":"Playa del Silencio","lat":"-6.295912","lng":"43.564676","html":"<a href='http:\/\/www.furgovw.org\/index.php?topic=169.0' align=center>Playa del Silencio<\/a><br><img src='http:\/\/img210.imageshack.us\/img210\/9687\/post31cc.jpg' width=306 height=82>","htmlp":"<img src='http:\/\/img210.imageshack.us\/img210\/9687\/post31cc.jpg' width=306 height=82><br>Click para mas info","link":"http:\/\/www.furgovw.org\/index.php?topic=169.0","imagen":"http:\/\/img219.imageshack.us\/img219\/9808\/playadelsilenciopc1.jpg","autor":"kalimocho","ancho":"167","alto":"100","destomtom":"","id_member":"4","date":null,"topic_id":"169"},{"id":"22","icono":"0","nombre":"Barcena Mayor","lat":"-4.19343","lng":"43.143677","html":"<a href='http:\/\/www.furgovw.org\/index.php?topic=202.0' align=center>Barcena Mayor<\/a><br><img src='http:\/\/nodo016.bankhacker.com\/fotos-thumbnail\/00039178.jpg' width=110 height=90>","htmlp":"<img src='http:\/\/nodo016.bankhacker.com\/fotos-thumbnail\/00039178.jpg' width=110 height=90><br>Click para mas info","link":"http:\/\/www.furgovw.org\/index.php?topic=202.0","imagen":"http:\/\/nodo016.bankhacker.com\/fotos-thumbnail\/00039178.jpg","autor":"jperchita","ancho":"110","alto":"90","destomtom":null,"id_member":"76","date":null,"topic_id":"202"},{"id":"23","icono":"0","nombre":"Pto de la Cubilla","lat":"-5.911803","lng":"43.002858","html":"<a href='http:\/\/www.furgovw.org\/index.php?topic=619.0' align=center>Pto de la Cubilla<\/a><br><img src='http:\/\/img125.imageshack.us\/img125\/6416\/r0020093gy.jpg' width=250 height=80>","htmlp":"<img src='http:\/\/img125.imageshack.us\/img125\/6416\/r0020093gy.jpg' width=250 height=80><br>Click para mas info","link":"http:\/\/www.furgovw.org\/index.php?topic=619.0","imagen":"http:\/\/img223.imageshack.us\/img223\/6940\/puertodelacubillabc0.jpg","autor":"expedicion_malaespina","ancho":"239","alto":"120","destomtom":null,"id_member":"49","date":null,"topic_id":"619"},{"id":"24","icono":"0","nombre":"Bufones de Llames","lat":"-4.976635","lng":"43.452966","html":"<a href='http:\/\/www.furgovw.org\/index.php?topic=440.0' align=center>Llames y los bufones<\/a><br><img src='http:\/\/www.orienteasturias.com\/fotos\/guadamia.jpg' width=93 height=89>","htmlp":"<img src='http:\/\/www.orienteasturias.com\/fotos\/guadamia.jpg' width=93 height=89><br>Click para mas info","link":"http:\/\/www.furgovw.org\/index.php?topic=440.0","imagen":"http:\/\/img71.imageshack.us\/img71\/1089\/bufonesllamesasturiaszg8.jpg","autor":"akelarre","ancho":"153","alto":"120","destomtom":"(Acceso por camino en mal estado)","id_member":"220","date":null,"topic_id":"440"},{"id":"26","icono":"0","nombre":"Parking de Entrago (Senda del Oso)","lat":"-6.09703","lng":"43.17052","html":"<a href='http:\/\/www.furgovw.org\/index.php?topic=308.0' align=center>Senda del Oso<\/a><br><img src='http:\/\/img348.imageshack.us\/img348\/4395\/20060501091700aparcamientoentr.th.jpg' width=152 height=79>","htmlp":"<img src='http:\/\/img348.imageshack.us\/img348\/4395\/20060501091700aparcamientoentr.th.jpg' width=152 height=79><br>Click para mas info","link":"http:\/\/www.furgovw.org\/index.php?topic=308.0","imagen":"http:\/\/img348.imageshack.us\/img348\/4395\/20060501091700aparcamientoentr.th.jpg","autor":"ooznak","ancho":"152","alto":"79","destomtom":"Entrago (Agua SI, WC NO)","id_member":"14","date":null,"topic_id":"308"},{"id":"27","icono":"0","nombre":"Espinaredo","lat":"-5.349548","lng":"43.27658","html":"<a href='http:\/\/www.furgovw.org\/index.php?topic=159.0' align=center>Espinaredo<\/a><br><img src='http:\/\/archilibre.org\/tradition\/asturies\/espinaredo\/es2.jpg' width=200 height=100>","htmlp":"<img src='http:\/\/archilibre.org\/tradition\/asturies\/espinaredo\/es2.jpg' width=200 height=100><br>Click para mas info","link":"http:\/\/www.furgovw.org\/index.php?topic=159.0","imagen":"http:\/\/img340.imageshack.us\/img340\/9379\/espinaredoasturiashorreospo6.jpg","autor":"CIOMC","ancho":"180","alto":"120","destomtom":null,"id_member":"226","date":null,"topic_id":"159"},{"id":"30","icono":"0","nombre":"Embalse de Puente Nuevo","lat":"-4.961872","lng":"38.121053","html":"<a href='http:\/\/www.furgovw.org\/index.php?topic=805.0' align=center>Embalse de Puente Nuevo<\/a><br><img src='http:\/\/static.flickr.com\/49\/142909911_1df94e7b8d.jpg?v=0' width=200 height=75>","htmlp":"<img src='http:\/\/static.flickr.com\/49\/142909911_1df94e7b8d.jpg?v=0' width=200 height=75><br>Click para mas info","link":"http:\/\/www.furgovw.org\/index.php?topic=805.0","imagen":"http:\/\/img244.imageshack.us\/img244\/8190\/embalsepuentenuevooa2.jpg","autor":"eneko","ancho":"133","alto":"100","destomtom":null,"id_member":"298","date":null,"topic_id":"805"},{"id":"32","icono":"0","nombre":"Embalse de Yesa","lat":"-1.103848","lng":"42.612371","html":"<a href='http:\/\/www.furgovw.org\/index.php?topic=1051.0' align=center>Pantano de Yesa<\/a><br><img src='http:\/\/img45.imageshack.us\/img45\/6167\/pantanoyesaqk1.jpg' width=223 height=102>","htmlp":"Pantano de Yesa<br><img src='http:\/\/img45.imageshack.us\/img45\/6167\/pantanoyesaqk1.jpg' width=223 height=102><br>Click para mas info","link":"http:\/\/www.furgovw.org\/index.php?topic=1051.0","imagen":"http:\/\/img45.imageshack.us\/img45\/6167\/pantanoyesaqk1.jpg","autor":"akelarre","ancho":"223","alto":"102","destomtom":"(Acceso por camino en mal estado;Gratuito;Agua:no;Wc:no)","id_member":"220","date":null,"topic_id":"1051"},{"id":"33","icono":"0","nombre":"Zuriza","lat":"-0.811615","lng":"42.865396","html":"<a href='http:\/\/www.furgovw.org\/index.php?topic=265.0' align=center>Zuriza<\/a><br><img src='http:\/\/img58.imageshack.us\/img58\/7711\/zurizaeb0.jpg' width=223 height=102>","htmlp":"Zuriza<br><img src='http:\/\/img58.imageshack.us\/img58\/7711\/zurizaeb0.jpg' width=223 height=102><br>Click para mas info","link":"http:\/\/www.furgovw.org\/index.php?topic=265.0","imagen":"http:\/\/img58.imageshack.us\/img58\/7711\/zurizaeb0.jpg","autor":"pepe gotera","ancho":"223","alto":"102","destomtom":null,"id_member":"123","date":null,"topic_id":"265"},{"id":"34","icono":"0","nombre":"Puente de las Pilas - Enate","lat":"0.219533","lng":"42.064173","html":"<a href='http:\/\/www.furgovw.org\/index.php?topic=725.0' align=center>Puente de las Pilas - Enate<\/a><br><img src='http:\/\/img76.imageshack.us\/img76\/453\/enateqz8.jpg' width=203 height=92>","htmlp":"Puente de las Pilas - Enate<br><img src='http:\/\/img76.imageshack.us\/img76\/453\/enateqz8.jpg' width=203 height=92><br>Click para mas info","link":"http:\/\/www.furgovw.org\/index.php?topic=725.0","imagen":"http:\/\/img76.imageshack.us\/img76\/453\/enateqz8.jpg","autor":"VICTORR","ancho":"203","alto":"92","destomtom":"Gratuito; Agua: no; Wc: no","id_member":"545","date":null,"topic_id":"725"},{"id":"36","icono":"0","nombre":"Toledo","lat":"-4.018841","lng":"39.865251","html":"<a href='http:\/\/www.furgovw.org\/index.php?topic=52.0' align=center>Toledo<\/a><br><img src='http:\/\/img59.imageshack.us\/img59\/872\/toledowe2.jpg' width=203 height=92>","htmlp":"Toledo<br><img src='http:\/\/img59.imageshack.us\/img59\/872\/toledowe2.jpg' width=203 height=92><br>Click para mas info","link":"http:\/\/www.furgovw.org\/index.php?topic=212.0","imagen":"http:\/\/img59.imageshack.us\/img59\/872\/toledowe2.jpg","autor":"alcasa","ancho":"203","alto":"92","destomtom":"Gratuito;Agua:no; Wc:no;parking junto a est.autobuses","id_member":"146","date":null,"topic_id":"212"},{"id":"37","icono":"0","nombre":"Mota del Cuervo","lat":"-2.873054","lng":"39.502683","html":"<a href='http:\/\/www.furgovw.org\/index.php?topic=211.0' align=center>Mota del Cuervo<\/a><br><img src='http:\/\/img77.imageshack.us\/img77\/8438\/motadelcuervost3.jpg' width=168 height=102>","htmlp":"Mota del Cuervo<br><img src='http:\/\/img77.imageshack.us\/img77\/8438\/motadelcuervost3.jpg' width=168 height=102><br>Click para mas info","link":"http:\/\/www.furgovw.org\/index.php?topic=211.0","imagen":"http:\/\/img77.imageshack.us\/img77\/8438\/motadelcuervost3.jpg","autor":"alcasa","ancho":"168","alto":"102","destomtom":"","id_member":"146","date":null,"topic_id":"211"},{"id":"38","icono":"0","nombre":"Delta del Ebro","lat":"0.825359","lng":"40.704099","html":"<a href='http:\/\/www.furgovw.org\/index.php?topic=510.0' align=center>Delta del Ebro<\/a><br><img src='http:\/\/img107.imageshack.us\/img107\/1220\/deltadelebrona2.jpg' width=254 height=102>","htmlp":"Delta del Ebro<br><img src='http:\/\/img107.imageshack.us\/img107\/1220\/deltadelebrona2.jpg' width=254 height=102><br>Click para mas info","link":"http:\/\/www.furgovw.org\/index.php?topic=510.0","imagen":"http:\/\/img107.imageshack.us\/img107\/1220\/deltadelebrona2.jpg","autor":"Karmann","ancho":"254","alto":"102","destomtom":null,"id_member":"36","date":null,"topic_id":"510"},{"id":"39","icono":"0","nombre":"Refugio Honeria (Canejan)","lat":"0.807055","lng":"42.818365","html":"<a href='http:\/\/www.furgovw.org\/index.php?topic=471.0' align=center>Canejan<\/a><br><img src='http:\/\/img219.imageshack.us\/img219\/3348\/canejanuw2.jpg' width=226 height=92>","htmlp":"Canejan<br><img src='http:\/\/img219.imageshack.us\/img219\/3348\/canejanuw2.jpg' width=226 height=92><br>Click para mas info","link":"http:\/\/www.furgovw.org\/index.php?topic=471.0","imagen":"http:\/\/img219.imageshack.us\/img219\/3348\/canejanuw2.jpg","autor":"PIRATA","ancho":"226","alto":"92","destomtom":"(Gratuito; Agua: no; Wc: no; lugar solitario y apartado)","id_member":"186","date":null,"topic_id":"471"},{"id":"45","icono":"0","nombre":"Lugar del Rio","lat":"-2.861488","lng":"42.329196","html":"<a href='http:\/\/www.furgovw.org\/index.php?topic=468.0' align=center>Lugar del Rio<\/a><br><img src='http:\/\/img73.imageshack.us\/img73\/892\/lugardelrioxx8.jpg' width=180 height=102>","htmlp":"Lugar del Rio<br><img src='http:\/\/img73.imageshack.us\/img73\/892\/lugardelrioxx8.jpg' width=180 height=102><br>Click para mas info","link":"http:\/\/www.furgovw.org\/index.php?topic=468.0","imagen":"http:\/\/img73.imageshack.us\/img73\/892\/lugardelrioxx8.jpg","autor":"CIOMC","ancho":"180","alto":"102","destomtom":null,"id_member":"226","date":null,"topic_id":"468"},{"id":"46","icono":"0","nombre":"Pazuengos","lat":"-2.925518","lng":"42.318376","html":"<a href='http:\/\/www.furgovw.org\/index.php?topic=469.0' align=center>Pazuengos<\/a><br><img src='http:\/\/img239.imageshack.us\/img239\/3525\/pazuengosah5.jpg' width=240 height=100>","htmlp":"Pazuengos<br><img src='http:\/\/img239.imageshack.us\/img239\/3525\/pazuengosah5.jpg' width=240 height=100><br>Click para mas info","link":"http:\/\/www.furgovw.org\/index.php?topic=469.0","imagen":"http:\/\/img239.imageshack.us\/img239\/3525\/pazuengosah5.jpg","autor":"CIOMC","ancho":"240","alto":"100","destomtom":null,"id_member":"226","date":null,"topic_id":"469"},{"id":"48","icono":"0","nombre":"Bolnuevo y Mazarron","lat":"-1.315098","lng":"37.563171","html":"<a href='http:\/\/www.furgovw.org\/index.php?topic=161.0' align=center>Bolnuevo y Mazarron<\/a><br><img src='http:\/\/img163.imageshack.us\/img163\/7671\/bolnuevofq3.jpg' width=215 height=102>","htmlp":"Bolnuevo y Mazarron<br><img src='http:\/\/img163.imageshack.us\/img163\/7671\/bolnuevofq3.jpg' width=215 height=102><br>Click para mas info","link":"http:\/\/www.furgovw.org\/index.php?topic=161.0","imagen":"http:\/\/img163.imageshack.us\/img163\/7671\/bolnuevofq3.jpg","autor":"Coke","ancho":"215","alto":"102","destomtom":null,"id_member":"45","date":null,"topic_id":"161"},{"id":"50","icono":"0","nombre":"Pantano de Alloz","lat":"-1.942456","lng":"42.716451","html":"<a href='http:\/\/www.furgovw.org\/index.php?topic=888.0' align=center>Pantano de Alloz<\/a><br><img src='http:\/\/img406.imageshack.us\/img406\/9568\/pantanoallozuh2.jpg' width=217 height=112>","htmlp":"Pantano de Alloz<br><img src='http:\/\/img406.imageshack.us\/img406\/9568\/pantanoallozuh2.jpg' width=217 height=112><br>Click para mas info","link":"http:\/\/www.furgovw.org\/index.php?topic=888.0","imagen":"http:\/\/img406.imageshack.us\/img406\/9568\/pantanoallozuh2.jpg","autor":"cojofurgoXXL","ancho":"217","alto":"112","destomtom":null,"id_member":"472","date":null,"topic_id":"888"},{"id":"52","icono":"1","nombre":"Cabarceno","lat":"-3.819718","lng":"43.35802","html":"<a href='http:\/\/www.furgovw.org\/index.php?topic=1169' align=center>Cabarceno<\/a><br><img src='http:\/\/img427.imageshack.us\/img427\/8598\/cabarcenoui3.jpg' width=241 height=110>","htmlp":"Cabarceno<br><img src='http:\/\/img427.imageshack.us\/img427\/8598\/cabarcenoui3.jpg' width=241 height=110><br>Click para mas info","link":"http:\/\/www.furgovw.org\/index.php?topic=1169.0","imagen":"http:\/\/img427.imageshack.us\/img427\/8598\/cabarcenoui3.jpg","autor":"kalimocho","ancho":"241","alto":"110","destomtom":"","id_member":"4","date":null,"topic_id":"1169"},{"id":"53","icono":"0","nombre":"Estaca de Bares","lat":"-7.68322","lng":"43.784728","html":null,"htmlp":null,"link":"http:\/\/www.furgovw.org\/index.php?topic=1227.0","imagen":"http:\/\/img83.imageshack.us\/img83\/3172\/estacadebaresnq8.jpg","autor":"lugarejos","ancho":"268","alto":"120","destomtom":null,"id_member":"396","date":null,"topic_id":"1227"},{"id":"54","icono":"4","nombre":"Camping Las Nieves","lat":"-5.276527","lng":"43.007346","html":null,"htmlp":null,"link":"http:\/\/www.furgovw.org\/index.php?topic=1231.0","imagen":"http:\/\/img53.imageshack.us\/img53\/9792\/campingdelasnievesleonco3.jpg","autor":"kalimocho","ancho":"212","alto":"130","destomtom":"Agua Si -WC Si -Vaciado Si -11 furgo y 2 per","id_member":"4","date":null,"topic_id":"1231"},{"id":"55","icono":"0","nombre":"Ezcaray","lat":"-3.009717","lng":"42.327443","html":null,"htmlp":null,"link":"http:\/\/www.furgovw.org\/index.php?topic=1240.0","imagen":"http:\/\/img45.imageshack.us\/img45\/7239\/ezcarayae3.jpg","autor":"mahou1979","ancho":"297","alto":"130","destomtom":"(Gratuito;Agua:no;Wc:no)","id_member":"117","date":null,"topic_id":"1240"},{"id":"58","icono":"0","nombre":"Playa de Carre\u00e7o","lat":"-8.877334","lng":"41.746129","html":null,"htmlp":null,"link":"http:\/\/www.furgovw.org\/index.php?topic=1254.0","imagen":"http:\/\/img91.imageshack.us\/img91\/7209\/norteportugalyriasgallegasft0.jpg","autor":"mahou1979","ancho":"250","alto":"188","destomtom":null,"id_member":"117","date":null,"topic_id":"1254"},{"id":"59","icono":"1","nombre":"Area ACs Lierganes","lat":"-3.741682","lng":"43.344859","html":null,"htmlp":null,"link":"http:\/\/www.furgovw.org\/index.php?topic=1269.0","imagen":"http:\/\/img159.imageshack.us\/img159\/2831\/lierganescantabriapeqei5.jpg","autor":"kalimocho","ancho":"228","alto":"100","destomtom":null,"id_member":"4","date":null,"topic_id":"1269"},{"id":"60","icono":"1","nombre":"Area ACs Messanges (Landas)","lat":"-1.402602","lng":"43.81571","html":null,"htmlp":null,"link":"http:\/\/www.furgovw.org\/index.php?topic=415.0","imagen":"http:\/\/img169.imageshack.us\/img169\/2563\/messangeslandasfrancepeqmx5.jpg","autor":"Luisma","ancho":"259","alto":"140","destomtom":"Agua-WC-Duchas SI (playa)-Vaciado NO-Gratis","id_member":"7","date":null,"topic_id":"415"},{"id":"64","icono":"0","nombre":"Playa de Baleal, Peniche","lat":"-9.336727","lng":"39.372675","html":null,"htmlp":null,"link":"http:\/\/www.furgovw.org\/index.php?topic=1285.0","imagen":"http:\/\/img50.imageshack.us\/img50\/125\/playadebalealpenichepv1.jpg","autor":"mahou1979","ancho":"202","alto":"120","destomtom":null,"id_member":"117","date":null,"topic_id":"1285"},{"id":"65","icono":"0","nombre":"Playa Ribera de Ilhas, Ericeira","lat":"-9.417665","lng":"38.988769","html":null,"htmlp":null,"link":"http:\/\/www.furgovw.org\/index.php?topic=1286.0","imagen":"http:\/\/img102.imageshack.us\/img102\/3306\/playariberadeilhasko3.jpg","autor":"mahou1979","ancho":"221","alto":"100","destomtom":null,"id_member":"117","date":null,"topic_id":"1286"},{"id":"67","icono":"0","nombre":"Sao Jacinto","lat":"-8.727393","lng":"40.662174","html":null,"htmlp":null,"link":"http:\/\/www.furgovw.org\/index.php?topic=1313.0","imagen":"http:\/\/img89.imageshack.us\/img89\/1232\/saojacintowy9.jpg","autor":"mahou1979","ancho":"167","alto":"110","destomtom":null,"id_member":"117","date":null,"topic_id":"1313"},{"id":"69","icono":"0","nombre":"Villamorey - Sobreescobio","lat":"-5.468788","lng":"43.216311","html":null,"htmlp":null,"link":"http:\/\/www.furgovw.org\/index.php?topic=1352.0","imagen":"http:\/\/img227.imageshack.us\/img227\/589\/villamoreypeqja8.jpg","autor":"kalimocho","ancho":"221","alto":"120","destomtom":null,"id_member":"4","date":null,"topic_id":"1352"},{"id":"70","icono":"2","nombre":"Via Verde Casalarreina-Ezcaray","lat":"-2.913201","lng":"42.547919","html":null,"htmlp":null,"link":"http:\/\/www.furgovw.org\/index.php?topic=1240.0","imagen":"http:\/\/img144.imageshack.us\/img144\/294\/vvcasalarreinaezcarayep5.jpg","autor":"ooznak","ancho":"151","alto":"100","destomtom":null,"id_member":"14","date":null,"topic_id":"1240"},{"id":"71","icono":"0","nombre":"Barrika","lat":"-2.970085","lng":"43.404611","html":null,"htmlp":null,"link":"http:\/\/www.furgovw.org\/index.php?topic=1408.0","imagen":"http:\/\/img291.imageshack.us\/img291\/4057\/barrikajh6.jpg","autor":"ooznak","ancho":"180","alto":"105","destomtom":null,"id_member":"14","date":null,"topic_id":"1408"},{"id":"73","icono":"0","nombre":"Las Ag\u00fceras (Senda del Oso)","lat":"-6.003932","lng":"43.198951","html":null,"htmlp":null,"link":"http:\/\/www.furgovw.org\/index.php?topic=1404.0","imagen":"http:\/\/img235.imageshack.us\/img235\/5895\/lasaguerassendadelosovq3.jpg","autor":"ooznak","ancho":"213","alto":"120","destomtom":"Gratuito; Agua: no; Wc: no","id_member":"14","date":null,"topic_id":"1404"},{"id":"74","icono":"2","nombre":"Senda del Oso","lat":"-6.09703","lng":"43.17052","html":null,"htmlp":null,"link":"http:\/\/www.furgovw.org\/index.php?topic=308.0","imagen":"http:\/\/img79.imageshack.us\/img79\/6282\/sendadelosoht5.jpg","autor":"ooznak","ancho":"198","alto":"110","destomtom":"28 km de via verde acondicionada","id_member":"14","date":null,"topic_id":"308"},{"id":"76","icono":"0","nombre":"Casas del Rio","lat":"-1.134167","lng":"39.304351","html":null,"htmlp":null,"link":"http:\/\/www.furgovw.org\/index.php?topic=1576.0","imagen":"http:\/\/img47.imageshack.us\/img47\/8971\/1004569ip1.th.jpg","autor":"PACOCO","ancho":"150","alto":"128","destomtom":null,"id_member":"454","date":null,"topic_id":"1576"},{"id":"77","icono":"0","nombre":"El Regajo","lat":"-0.506058","lng":"39.907629","html":null,"htmlp":null,"link":"http:\/\/www.furgovw.org\/index.php?topic=1575.0","imagen":"http:\/\/img70.imageshack.us\/img70\/2281\/1004241to4.th.jpg","autor":"PACOCO","ancho":"150","alto":"128","destomtom":null,"id_member":"454","date":null,"topic_id":"1575"},{"id":"78","icono":"0","nombre":"Buseo (Chera)","lat":"-0.955896","lng":"39.591403","html":null,"htmlp":null,"link":"http:\/\/www.furgovw.org\/index.php?topic=1597.0","imagen":"http:\/\/img123.imageshack.us\/img123\/349\/cheragr3.th.jpg","autor":"PACOCO","ancho":"125","alto":"165","destomtom":"","id_member":"454","date":null,"topic_id":"1597"},{"id":"79","icono":"0","nombre":"Lago de Sanabria","lat":"-6.642179","lng":"42.083955","html":null,"htmlp":null,"link":"http:\/\/www.furgovw.org\/index.php?topic=1791.0","imagen":"http:\/\/img115.imageshack.us\/img115\/6573\/sanabriaok3.jpg","autor":"miguel.ovd","ancho":"120","alto":"90","destomtom":"Agua Si -WC No -Vaciado No- Gratis Si","id_member":"656","date":null,"topic_id":"1791"},{"id":"81","icono":"0","nombre":"Area acampada de Senarta (Benasque)","lat":"0.566826","lng":"42.641283","html":null,"htmlp":null,"link":"http:\/\/www.furgovw.org\/index.php?topic=1863.0","imagen":"http:\/\/i63.photobucket.com\/albums\/h130\/furgovw\/Benasque\/IMG_2354-200.jpg","autor":"Luisma","ancho":"200","alto":"150","destomtom":"(13eur\/noche (furgo+2 pax);Agua: si;Wc:en verano;duchas:en verano)","id_member":"7","date":null,"topic_id":"1863"},{"id":"82","icono":"0","nombre":"Area Ac Lago Senpere","lat":"-1.521573","lng":"43.349369","html":null,"htmlp":null,"link":"http:\/\/www.furgovw.org\/index.php?topic=1850.0","imagen":"http:\/\/img176.imageshack.us\/img176\/1359\/imag0824ex4.th.jpg","autor":"CIOMC","ancho":"150","alto":"128","destomtom":"","id_member":"226","date":null,"topic_id":"1850"},{"id":"89","icono":"0","nombre":"Somo (Ribamontan al mar)","lat":"-3.740501","lng":"43.451922","html":null,"htmlp":null,"link":"http:\/\/www.furgovw.org\/index.php?topic=2047.0","imagen":"http:\/\/img397.imageshack.us\/img397\/5345\/somoee5.jpg","autor":"alvarogares","ancho":"147","alto":"105","destomtom":null,"id_member":"331","date":null,"topic_id":"2047"},{"id":"90","icono":"0","nombre":"Cascadas del Purgatorio","lat":"-3.881223","lng":"40.88837","html":null,"htmlp":null,"link":"http:\/\/www.furgovw.org\/index.php?topic=2048.0","imagen":"http:\/\/i102.photobucket.com\/albums\/m89\/alvarogares\/DSCN2505.jpg","autor":"alvarogares","ancho":"229","alto":"171","destomtom":"","id_member":"331","date":null,"topic_id":"2048"},{"id":"93","icono":"0","nombre":"Matxitxako","lat":"-2.752247","lng":"43.45566","html":null,"htmlp":null,"link":"http:\/\/www.furgovw.org\/index.php?topic=1048.0","imagen":"http:\/\/img524.imageshack.us\/img524\/8562\/matxitxakoyg5.jpg","autor":"mungitxo","ancho":"130","alto":"97","destomtom":null,"id_member":"661","date":null,"topic_id":"1048"},{"id":"94","icono":"0","nombre":"Urkiola","lat":"-2.646224","lng":"43.100873","html":null,"htmlp":null,"link":"http:\/\/www.furgovw.org\/index.php?topic=157.0","imagen":"http:\/\/img291.imageshack.us\/img291\/9329\/urkiolarn7.jpg","autor":"CIOMC","ancho":"130","alto":"87","destomtom":null,"id_member":"226","date":null,"topic_id":"157"},{"id":"95","icono":"0","nombre":"Valle del Tena","lat":"-0.304184","lng":"42.721038","html":null,"htmlp":null,"link":"http:\/\/www.furgovw.org\/index.php?topic=2015.0","imagen":"http:\/\/i102.photobucket.com\/albums\/m89\/alvarogares\/valledetena.jpg","autor":"alvarogares","ancho":"134","alto":"96","destomtom":null,"id_member":"331","date":null,"topic_id":"2015"},{"id":"96","icono":"0","nombre":"Bagneres de Bigorre","lat":"0.155869","lng":"43.061363","html":null,"htmlp":null,"link":"http:\/\/www.furgovw.org\/index.php?topic=2058.0","imagen":"http:\/\/img381.imageshack.us\/img381\/376\/bagneresxg9.jpg","autor":"mungitxo","ancho":"130","alto":"97","destomtom":"","id_member":"661","date":null,"topic_id":"2058"},{"id":"97","icono":"1","nombre":"Area ACs Brujas","lat":"3.223286","lng":"51.194944","html":null,"htmlp":null,"link":"http:\/\/www.furgovw.org\/index.php?topic=2067.0","imagen":"http:\/\/img295.imageshack.us\/img295\/8861\/brugge2tq7.th.jpg","autor":"CIOMC","ancho":"150","alto":"102","destomtom":"(25 eur\/noche)","id_member":"226","date":null,"topic_id":"2067"},{"id":"98","icono":"0","nombre":"San felices","lat":"-2.85018","lng":"42.619497","html":null,"htmlp":null,"link":"http:\/\/www.furgovw.org\/index.php?topic=2070.0","imagen":"http:\/\/img81.imageshack.us\/img81\/8885\/lariojaharofiestasbatalladelvinoxl1.jpg","autor":"CIOMC","ancho":"150","alto":"126","destomtom":null,"id_member":"226","date":null,"topic_id":"2070"},{"id":"99","icono":"0","nombre":"Volendam","lat":"5.076199","lng":"52.500862","html":null,"htmlp":null,"link":"http:\/\/www.furgovw.org\/index.php?topic=2060.0","imagen":"http:\/\/img182.imageshack.us\/img182\/6074\/volendampc5.th.jpg","autor":"CIOMC","ancho":"150","alto":"115","destomtom":null,"id_member":"226","date":null,"topic_id":"2060"},{"id":"100","icono":"0","nombre":"Deba","lat":"-2.352303","lng":"43.297347","html":null,"htmlp":null,"link":"http:\/\/www.furgovw.org\/index.php?topic=2095.0","imagen":"http:\/\/www.deba.net\/archivos\/deba_natural\/senderismodebamenoslasturmenositziarmenosdeba\/18_11_2002\/Santa%20Katalina.JPG","autor":"ooznak","ancho":"220","alto":"148","destomtom":"(Gratuito: no; Agua: no; Wc: no)","id_member":"14","date":null,"topic_id":"2095"},{"id":"101","icono":"2","nombre":"Via verde del Plazaola (acceso por Leitza)","lat":"-1.918166","lng":"43.087272","html":null,"htmlp":null,"link":"http:\/\/www.furgovw.org\/index.php?topic=2099.0","imagen":"http:\/\/img367.imageshack.us\/img367\/8186\/plazaoladu8.jpg","autor":"ooznak","ancho":"145","alto":"83","destomtom":"12 km de via verde acondicionados","id_member":"14","date":null,"topic_id":"2099"},{"id":"102","icono":"0","nombre":"Ruta del Alba","lat":"-5.468445","lng":"43.200171","html":null,"htmlp":null,"link":"http:\/\/www.furgovw.org\/index.php?topic=2103.0","imagen":"http:\/\/img413.imageshack.us\/img413\/9792\/aguesta2.jpg","autor":"miguel.ovd","ancho":"140","alto":"105","destomtom":null,"id_member":"656","date":null,"topic_id":"2103"},{"id":"104","icono":"0","nombre":"Larraitz","lat":"-2.096561","lng":"43.035146","html":null,"htmlp":null,"link":"http:\/\/www.furgovw.org\/index.php?topic=2122.0","imagen":"http:\/\/img117.imageshack.us\/img117\/1529\/larraitzdu5.jpg","autor":"akelarre","ancho":"150","alto":"76","destomtom":"(Gratuito;Agua:si;Wc:si)","id_member":"220","date":null,"topic_id":"2122"},{"id":"106","icono":"4","nombre":"Camping de Delftse Hout","lat":"4.378996","lng":"52.018883","html":null,"htmlp":null,"link":"http:\/\/www.furgovw.org\/index.php?topic=2145.0","imagen":"http:\/\/img403.imageshack.us\/img403\/1417\/delftssssql3.th.jpg","autor":"CIOMC","ancho":"150","alto":"128","destomtom":null,"id_member":"226","date":null,"topic_id":"2145"},{"id":"107","icono":"4","nombre":"Camping de Uitdam","lat":"5.078945","lng":"52.430962","html":null,"htmlp":null,"link":"http:\/\/www.furgovw.org\/index.php?topic=2146.0","imagen":"http:\/\/img304.imageshack.us\/img304\/5922\/uitdamku1.jpg","autor":"CIOMC","ancho":"150","alto":"102","destomtom":null,"id_member":"226","date":null,"topic_id":"2146"},{"id":"108","icono":"0","nombre":"Suances","lat":"-4.045084","lng":"43.43272","html":null,"htmlp":null,"link":"http:\/\/www.furgovw.org\/index.php?topic=2186.0","imagen":"http:\/\/img157.imageshack.us\/img157\/5521\/playadeloslocossuancesul3.th.jpg","autor":"DAVI","ancho":"150","alto":"112","destomtom":"(Gratuito;Agua:no;Wc:no;parking urbano)","id_member":"1164","date":null,"topic_id":"2186"},{"id":"109","icono":"0","nombre":"Playa de Amio","lat":"-4.484488","lng":"43.392423","html":null,"htmlp":null,"link":"http:\/\/www.furgovw.org\/index.php?topic=2188.0","imagen":"http:\/\/img171.imageshack.us\/img171\/5959\/imag0498qr9.th.jpg","autor":"CIOMC","ancho":"150","alto":"128","destomtom":"(Gratuito;Agua:no;Wc:no)","id_member":"226","date":null,"topic_id":"2188"},{"id":"110","icono":"0","nombre":"Valle del Jerte","lat":"-5.75494","lng":"40.220437","html":null,"htmlp":null,"link":"http:\/\/www.furgovw.org\/index.php?topic=2195.0;topicseen#msg17639","imagen":"http:\/\/img153.imageshack.us\/img153\/2442\/vallejk6.jpg","autor":"eneko","ancho":"105","alto":"140","destomtom":"","id_member":"298","date":null,"topic_id":"2195"},{"id":"113","icono":"0","nombre":"Fuencaliente","lat":"-4.297543","lng":"38.400335","html":null,"htmlp":null,"link":"http:\/\/www.furgovw.org\/index.php?topic=2202.0;topicseen#msg17681","imagen":"http:\/\/img97.imageshack.us\/img97\/7499\/riocerecedare5.jpg","autor":"eneko","ancho":"140","alto":"105","destomtom":null,"id_member":"298","date":null,"topic_id":"2202"},{"id":"114","icono":"0","nombre":"Andujar - Sierra Morena","lat":"-4.035072","lng":"38.163176","html":null,"htmlp":null,"link":"http:\/\/www.furgovw.org\/index.php?topic=2206.msg17715;topicseen#msg17715","imagen":"http:\/\/img206.imageshack.us\/img206\/9286\/sinttulo1copiawd5.jpg","autor":"eneko","ancho":"140","alto":"105","destomtom":null,"id_member":"298","date":null,"topic_id":"2206"},{"id":"115","icono":"0","nombre":"Sierra de Mariola","lat":"-0.524812","lng":"38.774554","html":null,"htmlp":null,"link":"http:\/\/www.furgovw.org\/index.php?topic=2353.0;topicseen#msg19391","imagen":"http:\/\/img165.imageshack.us\/img165\/6615\/1004734td7ik1.jpg","autor":"PACOCO","ancho":"140","alto":"105","destomtom":null,"id_member":"454","date":null,"topic_id":"2353"},{"id":"118","icono":"0","nombre":"Buelna","lat":"-4.619955","lng":"43.396247","html":null,"htmlp":null,"link":"http:\/\/www.furgovw.org\/index.php?topic=2427.0#new","imagen":"http:\/\/img82.imageshack.us\/img82\/7302\/buelnapr1il0.jpg","autor":"akelarre","ancho":"107","alto":"80","destomtom":null,"id_member":"220","date":null,"topic_id":"2427"},{"id":"119","icono":"0","nombre":"El molino del Infierno (Baztan)","lat":"-1.559876","lng":"43.204066","html":null,"htmlp":null,"link":"http:\/\/www.furgovw.org\/index.php?topic=2428.0","imagen":"http:\/\/img150.imageshack.us\/img150\/4105\/xe3x63ze82500xi2.jpg","autor":"akelarre","ancho":"100","alto":"150","destomtom":"","id_member":"220","date":null,"topic_id":"2428"},{"id":"120","icono":"0","nombre":"La Arena - Zieberna","lat":"-3.1125","lng":"43.34773","html":null,"htmlp":null,"link":"http:\/\/www.furgovw.org\/index.php?topic=2417.msg20175;topicseen#msg20175","imagen":"http:\/\/img137.imageshack.us\/img137\/244\/20061013zierbena2rw8ly1.jpg","autor":"ooznak","ancho":"150","alto":"60","destomtom":null,"id_member":"14","date":null,"topic_id":"2417"},{"id":"121","icono":"1","nombre":"Area Ac La Seu dUrgell","lat":"1.465063","lng":"42.35876","html":null,"htmlp":null,"link":"http:\/\/www.furgovw.org\/index.php?topic=2424.0;topicseen#msg20162","imagen":"http:\/\/img150.imageshack.us\/img150\/6451\/20060809laseulf8ox9.jpg","autor":"ooznak","ancho":"195","alto":"147","destomtom":"(Gratuito;Agua;si:Wc:no;Vaciado:si;Electr:si)","id_member":"14","date":null,"topic_id":"2424"},{"id":"122","icono":"0","nombre":"Cascada de Gujuli (goiuri)","lat":"-2.915282","lng":"42.974762","html":null,"htmlp":null,"link":"http:\/\/www.furgovw.org\/index.php?topic=818.0","imagen":"http:\/\/img137.imageshack.us\/img137\/2171\/detodo050mf0db6.jpg","autor":"akelarre","ancho":"106","alto":"141","destomtom":null,"id_member":"220","date":null,"topic_id":"818"},{"id":"124","icono":"1","nombre":"Area AC Saint Paul les Dax","lat":"-1.078544","lng":"43.734364","html":null,"htmlp":null,"link":"http:\/\/www.furgovw.org\/index.php?topic=2565.0","imagen":"http:\/\/img242.imageshack.us\/img242\/9206\/areastpaulpeqqa7.jpg","autor":"kalimocho","ancho":"150","alto":"102","destomtom":"(Gratuito;Agua:si;Wc:no;Vaciado:si;Elect:no)","id_member":"4","date":null,"topic_id":"2565"},{"id":"125","icono":"1","nombre":"Area AC Brantome","lat":"0.64585","lng":"45.3791","html":null,"htmlp":null,"link":"http:\/\/www.furgovw.org\/index.php?topic=2568.0","imagen":"http:\/\/img177.imageshack.us\/img177\/6974\/areabrantomepeqwg5.jpg","autor":"kalimocho","ancho":"195","alto":"88","destomtom":null,"id_member":"4","date":null,"topic_id":"2568"},{"id":"126","icono":"0","nombre":"Perigueux","lat":"0.723263","lng":"45.181118","html":null,"htmlp":null,"link":"http:\/\/www.furgovw.org\/index.php?topic=2571.0","imagen":"http:\/\/img133.imageshack.us\/img133\/1607\/areaperigueuxpeqxz0.jpg","autor":"kalimocho","ancho":"180","alto":"107","destomtom":"Gratuito; Agua: si; Wc: no","id_member":"4","date":null,"topic_id":"2571"},{"id":"127","icono":"4","nombre":"Camping Les deux vallees","lat":"1.163971","lng":"44.835559","html":null,"htmlp":null,"link":"http:\/\/www.furgovw.org\/index.php?topic=2575.0","imagen":"http:\/\/img89.imageshack.us\/img89\/4241\/campingdeuxvalleespeqsp7.jpg","autor":"kalimocho","ancho":"180","alto":"99","destomtom":null,"id_member":"4","date":null,"topic_id":"2575"},{"id":"128","icono":"1","nombre":"Area AC Domme","lat":"1.221655","lng":"44.800486","html":null,"htmlp":null,"link":"http:\/\/www.furgovw.org\/index.php?topic=2576.0","imagen":"http:\/\/img84.imageshack.us\/img84\/8440\/areadommegm2.jpg","autor":"kalimocho","ancho":"180","alto":"95","destomtom":"Gratuito: no (5 eur\/noche); Agua: si (2 eur.); Wc: no","id_member":"4","date":null,"topic_id":"2576"},{"id":"129","icono":"0","nombre":"Rocamadour (aparcamiento del rio)","lat":"1.619024","lng":"44.798449","html":null,"htmlp":null,"link":"http:\/\/www.furgovw.org\/index.php?topic=2578.0","imagen":"http:\/\/img147.imageshack.us\/img147\/3536\/parkingrocamadourcs4.jpg","autor":"kalimocho","ancho":"190","alto":"118","destomtom":"(Gratuito;Agua:no;Wc:no)","id_member":"4","date":null,"topic_id":"2578"},{"id":"130","icono":"1","nombre":"Area AC Sarlat La Caneda","lat":"1.212428","lng":"44.895579","html":null,"htmlp":null,"link":"http:\/\/www.furgovw.org\/index.php?topic=2580.0","imagen":"http:\/\/img99.imageshack.us\/img99\/2281\/areasarlatue7.jpg","autor":"kalimocho","ancho":"180","alto":"117","destomtom":"Gratuito: no (5 eur\/noche); Agua: si; Wc: no","id_member":"4","date":null,"topic_id":"2580"},{"id":"131","icono":"1","nombre":"Area AC Casteljaloux","lat":"0.078964","lng":"44.310553","html":null,"htmlp":null,"link":"http:\/\/www.furgovw.org\/index.php?topic=2581.0","imagen":"http:\/\/img139.imageshack.us\/img139\/3217\/areacastelnaudvl1.jpg","autor":"kalimocho","ancho":"210","alto":"94","destomtom":null,"id_member":"4","date":null,"topic_id":"2581"},{"id":"132","icono":"0","nombre":"Playa La Milady (Biarritz)","lat":"-1.57053","lng":"43.470425","html":null,"htmlp":null,"link":"http:\/\/www.furgovw.org\/index.php?topic=2589.0","imagen":"http:\/\/img264.imageshack.us\/img264\/8281\/parkinglamiladyhy1.jpg","autor":"kalimocho","ancho":"180","alto":"98","destomtom":null,"id_member":"4","date":null,"topic_id":"2589"},{"id":"133","icono":"5","nombre":"PIEPER - Accesorios camping","lat":"6.984891","lng":"51.573095","html":null,"htmlp":null,"link":"http:\/\/www.furgovw.org\/index.php?topic=2604.0","imagen":"http:\/\/img207.imageshack.us\/img207\/6579\/piepergladbecklf1.th.jpg","autor":"CIOMC","ancho":"150","alto":"128","destomtom":null,"id_member":"226","date":null,"topic_id":"2604"},{"id":"134","icono":"5","nombre":"Caravanas Evasion","lat":"-1.817014","lng":"43.332116","html":null,"htmlp":null,"link":"http:\/\/www.furgovw.org\/index.php?topic=2611.0","imagen":"http:\/\/img101.imageshack.us\/img101\/4264\/caravanasevasinec3.th.jpg","autor":"CIOMC","ancho":"150","alto":"128","destomtom":null,"id_member":"226","date":null,"topic_id":"2611"},{"id":"135","icono":"0","nombre":"Leucate","lat":"3.019352","lng":"42.909417","html":null,"htmlp":null,"link":"http:\/\/www.furgovw.org\/index.php?topic=2618.0","imagen":"http:\/\/img276.imageshack.us\/img276\/797\/leucateyv2.jpg","autor":"fern","ancho":"190","alto":"120","destomtom":null,"id_member":"436","date":null,"topic_id":"2618"},{"id":"136","icono":"0","nombre":"Embalse de Carbellino","lat":"-6.165047","lng":"41.213917","html":null,"htmlp":null,"link":"http:\/\/www.furgovw.org\/index.php?topic=2662.0","imagen":"http:\/\/img122.imageshack.us\/img122\/9486\/3bg5.jpg","autor":"nepali","ancho":"160","alto":"120","destomtom":"Agua No -WC No -Vaciado No -Gratis Si","id_member":"1271","date":null,"topic_id":"2662"},{"id":"138","icono":"0","nombre":"Parking en Santo Toribio de Liebana","lat":"-4.653686","lng":"43.150205","html":null,"htmlp":null,"link":"http:\/\/www.furgovw.org\/index.php?topic=2702.0","imagen":"http:\/\/img265.imageshack.us\/img265\/8374\/santotoribiopeqbr8.jpg","autor":"kalimocho","ancho":"150","alto":"113","destomtom":null,"id_member":"4","date":null,"topic_id":"2702"},{"id":"139","icono":"0","nombre":"Area recreativa de PenaRonda","lat":"-6.99224","lng":"43.554053","html":null,"htmlp":null,"link":"http:\/\/www.furgovw.org\/index.php?topic=2710.0","imagen":"http:\/\/img148.imageshack.us\/img148\/8702\/penarondady3.jpg","autor":"miguel.ovd","ancho":"180","alto":"100","destomtom":null,"id_member":"656","date":null,"topic_id":"2710"},{"id":"140","icono":"0","nombre":"Parque de invierno, Oviedo capital","lat":"-5.846937","lng":"43.352067","html":null,"htmlp":null,"link":"http:\/\/www.furgovw.org\/index.php?topic=2746.0","imagen":"http:\/\/img113.imageshack.us\/img113\/1447\/parquinviernoparkingyg3vl9.jpg","autor":"javi","ancho":"160","alto":"120","destomtom":null,"id_member":"363","date":null,"topic_id":"2746"},{"id":"141","icono":"0","nombre":"Lac Leon en Las Landas","lat":"-1.317072","lng":"43.885336","html":null,"htmlp":null,"link":"http:\/\/www.furgovw.org\/index.php?topic=2757.0","imagen":"http:\/\/img279.imageshack.us\/img279\/4515\/123lagolonenlaslandasab5.th.jpg","autor":"CIOMC","ancho":"150","alto":"128","destomtom":null,"id_member":"226","date":null,"topic_id":"2757"},{"id":"142","icono":"4","nombre":"Camping de Pijnacker","lat":"4.390583","lng":"52.019015","html":null,"htmlp":null,"link":"http:\/\/www.furgovw.org\/index.php?topic=2759.0","imagen":"http:\/\/img431.imageshack.us\/img431\/462\/106naturcampingdedelftne5.th.jpg","autor":"CIOMC","ancho":"150","alto":"128","destomtom":"","id_member":"226","date":null,"topic_id":"2759"},{"id":"143","icono":"4","nombre":"Camping Baliera","lat":"0.699069","lng":"42.43992","html":null,"htmlp":null,"link":"http:\/\/www.furgovw.org\/index.php?topic=2776.0","imagen":"http:\/\/i63.photobucket.com\/albums\/h130\/furgovw\/balierase3-250.jpg","autor":"Luisma","ancho":"250","alto":"187","destomtom":"Agua SI-WC SI- Vaciado SI","id_member":"7","date":null,"topic_id":"2776"},{"id":"144","icono":"4","nombre":"Camping La Fageda","lat":"2.516642","lng":"42.157653","html":null,"htmlp":null,"link":"http:\/\/www.furgovw.org\/index.php?topic=2777.0","imagen":"http:\/\/i63.photobucket.com\/albums\/h130\/furgovw\/IMG_2442-250.jpg","autor":"Luisma","ancho":"250","alto":"187","destomtom":"Agua SI-WC SI- Vaciado NO","id_member":"7","date":null,"topic_id":"2777"},{"id":"145","icono":"1","nombre":"Area ac Listorreta","lat":"-1.901354","lng":"43.267995","html":null,"htmlp":null,"link":"http:\/\/www.furgovw.org\/index.php?topic=2778.0","imagen":"http:\/\/www.furgovw.org\/mapa_imagenes\/9_800.jpg","autor":"Luisma","ancho":"140","alto":"105","destomtom":"(Gratuito;Agua:si;Wc:si;Vaciado:si;Elect:no)","id_member":"7","date":null,"topic_id":"2778"},{"id":"146","icono":"4","nombre":"Camping Covaleda","lat":"-2.879405","lng":"41.928783","html":null,"htmlp":null,"link":"http:\/\/www.furgovw.org\/index.php?topic=2822.0","imagen":"http:\/\/i63.photobucket.com\/albums\/h130\/furgovw\/covaleda\/covaledatxiki.jpg","autor":"Luisma","ancho":"150","alto":"112","destomtom":"Agua SI-WC SI- Vaciado SI","id_member":"7","date":null,"topic_id":"2822"},{"id":"147","icono":"0","nombre":"Sant Joan de L erm","lat":"1.293983","lng":"42.415409","html":null,"htmlp":null,"link":"http:\/\/www.furgovw.org\/index.php?topic=2720.0","imagen":"http:\/\/i14.tinypic.com\/2j2bvkn.jpg","autor":"marcus","ancho":"150","alto":"89","destomtom":null,"id_member":"282","date":null,"topic_id":"2720"},{"id":"148","icono":"0","nombre":"Presa de Maro\u00f1o","lat":"-3.059092","lng":"43.043237","html":null,"htmlp":null,"link":"http:\/\/www.furgovw.org\/index.php?topic=708.0","imagen":"http:\/\/i13.tinypic.com\/4fuwvmh.jpg","autor":"akelarre","ancho":"180","alto":"119","destomtom":null,"id_member":"220","date":null,"topic_id":"708"},{"id":"150","icono":"0","nombre":"Egino (La leze)","lat":"-2.273397","lng":"42.87653","html":null,"htmlp":null,"link":"http:\/\/www.furgovw.org\/index.php?topic=1511.0","imagen":"http:\/\/i13.tinypic.com\/2wdzhn4.jpg","autor":"akelarre","ancho":"107","alto":"169","destomtom":null,"id_member":"220","date":null,"topic_id":"1511"},{"id":"151","icono":"0","nombre":"Area recreativa de Pumares","lat":"-7.020264","lng":"43.259143","html":null,"htmlp":null,"link":"http:\/\/www.furgovw.org\/index.php?topic=2915.0","imagen":"http:\/\/i14.tinypic.com\/2ylrxpu.jpg","autor":"miguel.ovd","ancho":"201","alto":"124","destomtom":null,"id_member":"656","date":null,"topic_id":"2915"},{"id":"152","icono":"4","nombre":"Camping Vliegenbos (Amsterdam)","lat":"4.92722","lng":"52.38972","html":null,"htmlp":null,"link":"http:\/\/www.furgovw.org\/index.php?topic=2983.0","imagen":"http:\/\/img67.imageshack.us\/img67\/9783\/vakatas2ok5jp3.jpg","autor":"expedicion_malaespina","ancho":"100","alto":"68","destomtom":"","id_member":"49","date":null,"topic_id":"2983"},{"id":"154","icono":"4","nombre":"Camping Bled","lat":"14.080183","lng":"46.36163","html":null,"htmlp":null,"link":"http:\/\/www.furgovw.org\/index.php?topic=2986.0","imagen":"http:\/\/img428.imageshack.us\/img428\/7218\/2qtc1o6vf3.jpg","autor":"expedicion_malaespina","ancho":"100","alto":"68","destomtom":"","id_member":"49","date":null,"topic_id":"2986"},{"id":"156","icono":"0","nombre":"Sare","lat":"-1.579531","lng":"43.312743","html":null,"htmlp":null,"link":"http:\/\/www.furgovw.org\/index.php?topic=1028.0","imagen":"http:\/\/i12.tinypic.com\/30m5rp5.jpg","autor":"akelarre","ancho":"160","alto":"77","destomtom":null,"id_member":"220","date":null,"topic_id":"1028"},{"id":"165","icono":"0","nombre":"Lagunas de Taravilla  (Alto Tajo)","lat":"-1.974367","lng":"40.650153","html":null,"htmlp":null,"link":"http:\/\/www.furgovw.org\/index.php?topic=3134.msg28995;topicseen#new","imagen":"http:\/\/img66.imageshack.us\/img66\/4381\/hpim1691acs4ib8.jpg","autor":"Manol\u00edn","ancho":"150","alto":"113","destomtom":"Gratuito; Agua: no; Wc: no","id_member":"15","date":null,"topic_id":"3134"},{"id":"167","icono":"0","nombre":"Garrastatxu (Baranbio)","lat":"-2.901807","lng":"43.040681","html":null,"htmlp":null,"link":"http:\/\/www.furgovw.org\/index.php?topic=3252.0","imagen":"http:\/\/img106.imageshack.us\/img106\/7860\/ociogarrastatxuye5.jpg","autor":"akelarre","ancho":"100","alto":"65","destomtom":null,"id_member":"220","date":null,"topic_id":"3252"},{"id":"169","icono":"0","nombre":"Aritxulegi-Aiako arria","lat":"-1.794773","lng":"43.271503","html":null,"htmlp":null,"link":"http:\/\/www.furgovw.org\/index.php?topic=2904.msg26328#msg26328","imagen":"http:\/\/i63.photobucket.com\/albums\/h130\/furgovw\/AiakoArria\/Aritxulegi_txiki.jpg","autor":"Luisma","ancho":"100","alto":"75","destomtom":"Agua SI-WC NO- Vaciado NO-Gratis","id_member":"7","date":null,"topic_id":"2904"},{"id":"170","icono":"0","nombre":"Sorotxo-Aiako Arria","lat":"-1.805921","lng":"43.273612","html":null,"htmlp":null,"link":"http:\/\/www.furgovw.org\/index.php?topic=2904.msg26328#msg26328","imagen":"http:\/\/i63.photobucket.com\/albums\/h130\/furgovw\/AiakoArria\/Sorotxo_txiki.jpg","autor":"Luisma","ancho":"100","alto":"75","destomtom":"Agua NO-WC NO- Vaciado NO-Gratis","id_member":"7","date":null,"topic_id":"2904"},{"id":"171","icono":"0","nombre":"Zaria-Aiako Arria","lat":"-1.832389","lng":"43.243812","html":null,"htmlp":null,"link":"http:\/\/www.furgovw.org\/index.php?topic=2904.msg27431#msg27431","imagen":"http:\/\/i63.photobucket.com\/albums\/h130\/furgovw\/AiakoArria\/Zaria1_txiki.jpg","autor":"Luisma","ancho":"100","alto":"75","destomtom":"Agua NO-WC NO- Vaciado NO-Gratis","id_member":"7","date":null,"topic_id":"2904"},{"id":"172","icono":"0","nombre":"Sorondo-Aiako Arria","lat":"-1.850209","lng":"43.267976","html":null,"htmlp":null,"link":"http:\/\/www.furgovw.org\/index.php?topic=2904.msg27431#msg27431","imagen":"http:\/\/i63.photobucket.com\/albums\/h130\/furgovw\/AiakoArria\/sorondo_txiki.jpg","autor":"Luisma","ancho":"100","alto":"75","destomtom":"Agua SI(Ozentzio)-WC NO- Vaciado NO-Gratis","id_member":"7","date":null,"topic_id":"2904"},{"id":"173","icono":"0","nombre":"Oialeku-Aiako Arria","lat":"-1.82328","lng":"43.247399","html":null,"htmlp":null,"link":"http:\/\/www.furgovw.org\/index.php?topic=2904.msg27431#msg27431","imagen":"http:\/\/i63.photobucket.com\/albums\/h130\/furgovw\/AiakoArria\/Oialeku_txiki.jpg","autor":"Luisma","ancho":"100","alto":"75","destomtom":"Agua SI(300m)-WC NO- Vaciado NO-Gratis","id_member":"7","date":null,"topic_id":"2904"},{"id":"174","icono":"0","nombre":"Sorotxiki-Aiako Arria","lat":"-1.762995","lng":"43.301614","html":null,"htmlp":null,"link":"http:\/\/www.furgovw.org\/index.php?topic=2904.msg25994#msg25994","imagen":"http:\/\/i63.photobucket.com\/albums\/h130\/furgovw\/AiakoArria\/Sorotxiki_txiki.jpg","autor":"Luisma","ancho":"100","alto":"75","destomtom":"Agua NO-WC NO- Vaciado NO-Gratis","id_member":"7","date":null,"topic_id":"2904"},{"id":"175","icono":"0","nombre":"Elurretxe-Aiako Arria","lat":"-1.786587","lng":"43.295262","html":null,"htmlp":null,"link":"http:\/\/www.furgovw.org\/index.php?topic=2904.msg25994#msg25994","imagen":"http:\/\/i63.photobucket.com\/albums\/h130\/furgovw\/AiakoArria\/Elurretxe_txiki.jpg","autor":"Luisma","ancho":"100","alto":"75","destomtom":"Agua NO-WC NO- Vaciado NO-Gratis","id_member":"7","date":null,"topic_id":"2904"},{"id":"177","icono":"0","nombre":"Gaztelugatxe","lat":"-2.784562","lng":"43.446781","html":null,"htmlp":null,"link":"http:\/\/www.furgovw.org\/index.php?topic=548.0","imagen":"http:\/\/img367.imageshack.us\/img367\/2722\/gaztelugatxe1wl1nj7.jpg","autor":"akelarre","ancho":"100","alto":"75","destomtom":"Agua NO-WC NO- Vaciado NO-Gratis","id_member":"220","date":null,"topic_id":"548"},{"id":"178","icono":"1","nombre":"Area Ac de Cauterets","lat":"-0.11256","lng":"42.89361","html":null,"htmlp":null,"link":"http:\/\/www.furgovw.org\/index.php?topic=1045.0","imagen":"http:\/\/img176.imageshack.us\/img176\/9305\/1ct5.jpg","autor":"akelarre","ancho":"150","alto":"113","destomtom":"Gratuito:no(10eur\/dia)Agua:si;Wc:si;Vaciado:si;Electr:si","id_member":"220","date":null,"topic_id":"1045"},{"id":"180","icono":"0","nombre":"La Pedriza del Manzanares","lat":"-3.893069","lng":"40.751244","html":null,"htmlp":null,"link":"http:\/\/www.furgovw.org\/index.php?topic=3363.0","imagen":"http:\/\/img247.imageshack.us\/img247\/8906\/pedriza1ka6.jpg","autor":"Coke","ancho":"150","alto":"69","destomtom":"Agua NO-WC SI- Vaciado NO-Gratis","id_member":"45","date":null,"topic_id":"3363"},{"id":"181","icono":"0","nombre":"Valle de Iruelas","lat":"-4.573263","lng":"40.407524","html":null,"htmlp":null,"link":"http:\/\/www.furgovw.org\/index.php?topic=3335.0","imagen":"http:\/\/img134.imageshack.us\/img134\/2069\/2006noviembre1valledeirpr2.jpg","autor":"mahou1979","ancho":"150","alto":"68","destomtom":"Gratuito; Agua: si; Wc: no","id_member":"117","date":null,"topic_id":"3335"},{"id":"184","icono":"0","nombre":"Fragas de Eume","lat":"-8.132887","lng":"43.425532","html":null,"htmlp":null,"link":"http:\/\/www.furgovw.org\/index.php?topic=3434.0","imagen":"http:\/\/i15.tinypic.com\/4d310km.jpg","autor":"LOURO","ancho":"180","alto":"86","destomtom":"(Gratuito;Agua:no;Wc:no)","id_member":"1148","date":null,"topic_id":"3434"},{"id":"185","icono":"0","nombre":"Labastida","lat":"-2.797115","lng":"42.594196","html":null,"htmlp":null,"link":"http:\/\/www.furgovw.org\/index.php?topic=2311.new#new","imagen":"http:\/\/i15.tinypic.com\/4biwz2a.jpg","autor":"Akelarre","ancho":"180","alto":"74","destomtom":"","id_member":"220","date":null,"topic_id":"2311"},{"id":"186","icono":"0","nombre":"Parque natural de Valderejo","lat":"-3.228377","lng":"42.876117","html":null,"htmlp":null,"link":"http:\/\/www.furgovw.org\/index.php?topic=2609.0","imagen":"http:\/\/i15.tinypic.com\/2dtoodh.jpg","autor":"akelarre","ancho":"105","alto":"140","destomtom":"(Gratuito;Agua:no;Wc:no)","id_member":"220","date":null,"topic_id":"2609"},{"id":"187","icono":"4","nombre":"Peguerinos","lat":"-4.20269","lng":"40.65743","html":null,"htmlp":null,"link":"http:\/\/www.furgovw.org\/index.php?topic=3639.0","imagen":"http:\/\/img292.imageshack.us\/img292\/6076\/fotocampinght1bh2.jpg","autor":"Coke","ancho":"150","alto":"112","destomtom":"Agua Si -WC Si -Vaciado Si -16 furgo y 2 per\/noche","id_member":"45","date":null,"topic_id":"3639"},{"id":"188","icono":"0","nombre":"Navalonguilla","lat":"-5.500309","lng":"40.278691","html":null,"htmlp":null,"link":"http:\/\/www.furgovw.org\/index.php?topic=3593.0","imagen":"http:\/\/img299.imageshack.us\/img299\/6273\/vistasdf7py2.jpg","autor":"Coke","ancho":"150","alto":"112","destomtom":"Agua Si -WC Si -Vaciado No- Gratis Si","id_member":"45","date":null,"topic_id":"3593"},{"id":"189","icono":"0","nombre":"Riglos","lat":"-0.7271958","lng":"42.347452","html":null,"htmlp":null,"link":"http:\/\/www.furgovw.org\/index.php?topic=3669.0","imagen":"http:\/\/img180.imageshack.us\/img180\/6138\/1004900mo8by1.jpg","autor":"Pacoco","ancho":"150","alto":"113","destomtom":"Gratuito; Agua: no; Wc: no","id_member":"454","date":null,"topic_id":"3669"},{"id":"190","icono":"0","nombre":"Costa Nova do Prado (Aveiro)","lat":"-8.75208","lng":"40.61438","html":null,"htmlp":null,"link":"http:\/\/www.furgovw.org\/index.php?topic=3677.0","imagen":"http:\/\/img469.imageshack.us\/img469\/5985\/barquitastipicasoc1oh0.jpg","autor":"Coke","ancho":"138","alto":"150","destomtom":"Gratuito; Agua: si; Wc: si","id_member":"45","date":null,"topic_id":"3677"},{"id":"191","icono":"0","nombre":"Murua (Parque Natural del Gorbea)","lat":"-2.745273","lng":"43.007542","html":null,"htmlp":null,"link":"http:\/\/www.furgovw.org\/index.php?topic=2379.msg37001#msg37001","imagen":"http:\/\/img166.imageshack.us\/img166\/1007\/gorbeabz7.jpg","autor":"Akelarre","ancho":"150","alto":"61","destomtom":"Gratuito; Agua: no; Wc: no","id_member":"220","date":null,"topic_id":"2379"},{"id":"192","icono":"5","nombre":"www.planetacamper.com","lat":"-3.112289","lng":"43.323081","html":null,"htmlp":null,"link":"http:\/\/www.furgovw.org\/index.php?topic=3940.0","imagen":"http:\/\/www.furgovw.org\/gallery2\/main.php?g2_view=core.DownloadItem&g2_itemId=571&g2_serialNumber=3&g2_GALLERYSID=52d4c80e367b1e078fda79f006abf761","autor":"twiki","ancho":"150","alto":"103","destomtom":"(Venta de campers y autocaravanas)","id_member":"1056","date":null,"topic_id":"3940"},{"id":"193","icono":"5","nombre":"www.nopares.com","lat":"-2.954282","lng":"43.264827","html":null,"htmlp":null,"link":"http:\/\/www.furgovw.org\/index.php?topic=3938.0","imagen":"http:\/\/www.furgovw.org\/gallery2\/main.php?g2_view=core.DownloadItem&g2_itemId=571&g2_serialNumber=3&g2_GALLERYSID=52d4c80e367b1e078fda79f006abf761","autor":"twiki","ancho":"150","alto":"103","destomtom":"Importador de furgos camper","id_member":"1056","date":null,"topic_id":"3938"},{"id":"194","icono":"0","nombre":"Augasmestas","lat":"-7.34273","lng":"42.458389","html":null,"htmlp":null,"link":"http:\/\/www.furgovw.org\/index.php?topic=4065.0","imagen":"http:\/\/img223.imageshack.us\/img223\/2194\/2389d429ectj1.jpg","autor":"Amedio","ancho":"150","alto":"113","destomtom":"Agua: S\u00ed, WC: Si, Gratuito: Si","id_member":"966","date":null,"topic_id":"4065"},{"id":"206","icono":"1","nombre":"Area ACs Cabra","lat":"-4.424014","lng":"37.466667","html":null,"htmlp":null,"link":"http:\/\/www.furgovw.org\/index.php?topic=5393.0","imagen":"http:\/\/www.furgovw.org\/mapa_imagenes\/thumbphp.jpg","autor":"eneko","ancho":"140","alto":"98","destomtom":"Agua: Si\/Vaciado: Si\/Gratuita","id_member":"298","date":null,"topic_id":"5393"},{"id":"208","icono":"1","nombre":"Area ACs El Bosque","lat":"-5.507069","lng":"36.756903","html":null,"htmlp":null,"link":"http:\/\/www.furgovw.org\/index.php?topic=5391.0","imagen":"http:\/\/www.furgovw.org\/mapa_imagenes\/el_bosque_1.jpg","autor":"eneko","ancho":"140","alto":"105","destomtom":"Agua: Si\/Vaciado: Si\/Gratuita","id_member":"298","date":null,"topic_id":"5391"},{"id":"209","icono":"0","nombre":"Parque Los Villares (Cordoba)","lat":"-4.811091","lng":"37.960377","html":null,"htmlp":null,"link":"http:\/\/www.furgovw.org\/index.php?topic=5070.0","imagen":"http:\/\/www.furgovw.org\/mapa_imagenes\/estadio_nuevo_arcangel.jpg","autor":"eneko","ancho":"140","alto":"105","destomtom":"(Gratuito;Agua:no;Wc:no)","id_member":"298","date":null,"topic_id":"5070"},{"id":"210","icono":"1","nombre":"Area ACs Miranda de Ebro","lat":"-2.954829","lng":"42.688461","html":null,"htmlp":null,"link":"http:\/\/www.furgovw.org\/index.php?topic=5387.0","imagen":"http:\/\/www.furgovw.org\/mapa_imagenes\/miranda_de_ebro.jpg","autor":"eneko","ancho":"140","alto":"105","destomtom":"Agua Si\/Vaciado Si\/WC No\/Gratuita","id_member":"298","date":null,"topic_id":"5387"},{"id":"211","icono":"0","nombre":"Estacion esqui Lunada","lat":"-3.654225","lng":"43.165866","html":null,"htmlp":null,"link":"http:\/\/www.furgovw.org\/index.php?topic=4928.0","imagen":"http:\/\/www.furgovw.org\/mapa_imagenes\/estacion_esqui_lunada.jpg","autor":"Tetr3s","ancho":"140","alto":"105","destomtom":"Agua No\/Vaciado No\/WC Si\/Gratuito","id_member":"1252","date":null,"topic_id":"4928"},{"id":"212","icono":"1","nombre":"Area de Montseny","lat":"2.40798","lng":"41.636029","html":null,"htmlp":null,"link":"http:\/\/www.furgovw.org\/index.php?topic=5386.0","imagen":"http:\/\/www.furgovw.org\/mapa_imagenes\/area_de_montseny.jpg","autor":"eneko","ancho":"140","alto":"105","destomtom":"Agua Si\/Vaciado Si\/WC Si\/Gratuito","id_member":"298","date":null,"topic_id":"5386"},{"id":"213","icono":"1","nombre":"Area del Penedes","lat":"1.581774","lng":"41.280709","html":null,"htmlp":null,"link":"http:\/\/www.furgovw.org\/index.php?topic=5385.0","imagen":"http:\/\/www.furgovw.org\/mapa_imagenes\/area_del_penedes.jpg","autor":"eneko","ancho":"140","alto":"105","destomtom":"Agua Si\/Vaciado Si\/WC Si\/Gratuito","id_member":"298","date":null,"topic_id":"5385"},{"id":"214","icono":"1","nombre":"Area ACs Zafra","lat":"-6.410767","lng":"38.425167","html":null,"htmlp":null,"link":"http:\/\/www.furgovw.org\/index.php?topic=5384.0","imagen":"http:\/\/www.furgovw.org\/mapa_imagenes\/area_zafra.jpg","autor":"eneko","ancho":"140","alto":"105","destomtom":"Agua Si\/Vaciado Si\/WC Si\/Gratuito","id_member":"298","date":null,"topic_id":"5384"},{"id":"216","icono":"1","nombre":"Area de ACs de Priego","lat":"-4.211841","lng":"37.442274","html":null,"htmlp":null,"link":"http:\/\/www.furgovw.org\/index.php?topic=5519.0","imagen":"http:\/\/www.furgovw.org\/mapa_imagenes\/priego_1.jpg","autor":"angeles","ancho":"140","alto":"105","destomtom":"Agua Si\/Vaciado Si\/WC Si\/Gratuita","id_member":"25563","date":null,"topic_id":"5519"},{"id":"219","icono":"0","nombre":"Playa del Hierro","lat":"-13.95224","lng":"28.739093","html":null,"htmlp":null,"link":"http:\/\/www.furgovw.org\/index.php?topic=4736.0","imagen":"http:\/\/www.furgovw.org\/mapa_imagenes\/playa_del_hierro.jpg","autor":"lolo_carta_oro","ancho":"140","alto":"105","destomtom":"Agua No\/Vaciado No\/WC No\/Gratuito","id_member":"1302","date":null,"topic_id":"4736"},{"id":"224","icono":"0","nombre":"Lastres","lat":"-5.26942","lng":"43.516471","html":null,"htmlp":null,"link":"http:\/\/www.furgovw.org\/index.php?topic=6144.0","imagen":"http:\/\/www.furgovw.org\/mapa_imagenes\/lastres01.jpg","autor":"kalimocho","ancho":"140","alto":"74","destomtom":"(Gratuito;Agua:si;Wc:no)","id_member":"4","date":null,"topic_id":"6144"},{"id":"231","icono":"0","nombre":"Sallent de Gallego","lat":"-0.33371","lng":"42.769508","html":null,"htmlp":null,"link":"http:\/\/www.furgovw.org\/index.php?topic=3850.0","imagen":"http:\/\/www.furgovw.org\/mapa_imagenes\/salleng.jpg","autor":"martxa","ancho":"140","alto":"105","destomtom":"Gratuito: Si, WC: no; Agua: no","id_member":"704","date":null,"topic_id":"3850"},{"id":"232","icono":"0","nombre":"Ciudadela de Jaca","lat":"-0.551398","lng":"42.574368","html":null,"htmlp":null,"link":"http:\/\/www.furgovw.org\/index.php?topic=1993.0","imagen":"http:\/\/www.furgovw.org\/mapa_imagenes\/jaca.jpg","autor":"Iru","ancho":"140","alto":"93","destomtom":"Gratuito; Agua: si; Wc: no; parking urbano","id_member":"901","date":null,"topic_id":"1993"},{"id":"234","icono":"1","nombre":"Estacion Invernal Alto Campoo","lat":"-4.370735","lng":"43.038125","html":null,"htmlp":null,"link":"http:\/\/www.furgovw.org\/index.php?topic=4994.msg76523#msg76523","imagen":"http:\/\/www.furgovw.org\/mapa_imagenes\/altocampoo_2.jpg","autor":"Tetr3s","ancho":"140","alto":"105","destomtom":"(Gratuito;Agua:si;WC:si;Vaciado:si;Elec:no)","id_member":"1252","date":null,"topic_id":"4994"},{"id":"235","icono":"4","nombre":"Camping Tarifa","lat":"-5.650299","lng":"36.054876","html":null,"htmlp":null,"link":"http:\/\/www.furgovw.org\/index.php?topic=6448.0","imagen":"http:\/\/www.furgovw.org\/mapa_imagenes\/camping_tarifa.jpg","autor":"twiki","ancho":"140","alto":"105","destomtom":"Camping 12EUR furgo peq+2pers+electr","id_member":"1056","date":null,"topic_id":"6448"},{"id":"241","icono":"0","nombre":"Santuario de Arantzazu","lat":"-2.402036","lng":"42.980288","html":null,"htmlp":null,"link":"http:\/\/www.furgovw.org\/index.php?topic=6532.0","imagen":"http:\/\/www.furgovw.org\/mapa_imagenes\/arantzazu_1.jpg","autor":"shaktale","ancho":"140","alto":"105","destomtom":"Gratuito: Si,; Agua: si; Wc: si","id_member":"246","date":null,"topic_id":"6532"},{"id":"244","icono":"0","nombre":"Embalse Gabriel y Galan","lat":"-6.096983","lng":"40.231643","html":null,"htmlp":null,"link":"http:\/\/www.furgovw.org\/index.php?topic=4436.0","imagen":"http:\/\/www.furgovw.org\/mapa_imagenes\/embasegabriel.jpg","autor":"jakissa","ancho":"140","alto":"105","destomtom":"Gratuito: Si, Pernocta: Si","id_member":"1578","date":null,"topic_id":"4436"},{"id":"245","icono":"1","nombre":"Area de ACs de Caceres","lat":"-6.37121","lng":"39.47993","html":null,"htmlp":null,"link":"http:\/\/www.furgovw.org\/index.php?topic=5389.0","imagen":"http:\/\/www.furgovw.org\/mapa_imagenes\/area_acs_caceres.jpg","autor":"eneko","ancho":"140","alto":"105","destomtom":"Gratuito: Si, Pernocta: Si Agua: Si WC:si","id_member":"298","date":null,"topic_id":"5389"},{"id":"246","icono":"0","nombre":"Ulldemolins","lat":"0.864358","lng":"41.30897","html":null,"htmlp":null,"link":"http:\/\/www.furgovw.org\/index.php?topic=472.0","imagen":"http:\/\/www.furgovw.org\/mapa_imagenes\/ulldemolins1_1.jpg","autor":"MAK","ancho":"140","alto":"215","destomtom":"Gratuito: Si, Pernocta: Si","id_member":"112","date":null,"topic_id":"472"},{"id":"247","icono":"0","nombre":"Vilanova i La Geltru","lat":"1.72421","lng":"41.212448","html":null,"htmlp":null,"link":"http:\/\/www.furgovw.org\/index.php?topic=4281.0","imagen":"http:\/\/www.furgovw.org\/mapa_imagenes\/vilanova1hf9.jpg","autor":"campero","ancho":"140","alto":"93","destomtom":"Gratuito: Si, Pernocta: Si","id_member":"192","date":null,"topic_id":"4281"},{"id":"252","icono":"0","nombre":"Pen\u00ednsula do Barbanza","lat":"-9.040031","lng":"42.630494","html":null,"htmlp":null,"link":"http:\/\/www.furgovw.org\/index.php?topic=3510.msg34427#msg34427","imagen":"http:\/\/www.furgovw.org\/mapa_imagenes\/barbanza.jpg","autor":"gael160963","ancho":"140","alto":"68","destomtom":"Gratuito: Si, Pernocta: Si","id_member":"24","date":null,"topic_id":"3510"},{"id":"253","icono":"0","nombre":"Playa de Razo . A Coru\u00f1a","lat":"-8.695164","lng":"43.293232","html":null,"htmlp":null,"link":"http:\/\/www.furgovw.org\/index.php?topic=3330.0","imagen":"http:\/\/www.furgovw.org\/mapa_imagenes\/razo.jpg","autor":"erduka","ancho":"140","alto":"71","destomtom":"Gratuito: Si, Pernocta: Si","id_member":"1018","date":null,"topic_id":"3330"},{"id":"257","icono":"0","nombre":"Alto de Dima","lat":"-2.67851","lng":"43.068986","html":null,"htmlp":null,"link":"http:\/\/www.furgovw.org\/index.php?topic=3539.msg34835#msg34835","imagen":"http:\/\/www.furgovw.org\/mapa_imagenes\/dima1_1.jpg","autor":"akelarre","ancho":"140","alto":"112","destomtom":"Gratuito: Si, Pernocta: Si, Agua: Si","id_member":"220","date":null,"topic_id":"3539"},{"id":"259","icono":"0","nombre":"El Refor, Amurrio","lat":"-2.998323","lng":"43.04399","html":null,"htmlp":null,"link":"http:\/\/www.furgovw.org\/index.php?topic=3512.0","imagen":"http:\/\/www.furgovw.org\/mapa_imagenes\/amurrio_1.jpg","autor":"akelarre","ancho":"140","alto":"100","destomtom":"Gratuito: Si, Pernocta: Si Agua: Si WC:si","id_member":"220","date":null,"topic_id":"3512"},{"id":"260","icono":"0","nombre":"Robledal de Orgi (Valle de Ultzama)","lat":"-1.67839","lng":"42.96549","html":null,"htmlp":null,"link":"http:\/\/www.furgovw.org\/index.php?topic=6656.0","imagen":"http:\/\/www.furgovw.org\/mapa_imagenes\/ultzama.jpg","autor":"panadero","ancho":"140","alto":"96","destomtom":"(Gratuito:no(4eur);Agua:si;Wc:no)","id_member":"2179","date":null,"topic_id":"6656"},{"id":"261","icono":"0","nombre":"Pola de Somiedo","lat":"-6.257293","lng":"43.092632","html":null,"htmlp":null,"link":"http:\/\/www.furgovw.org\/index.php?topic=6739.msg80807#new","imagen":"http:\/\/www.furgovw.org\/mapa_imagenes\/pola_somiedo.jpg","autor":"miguel.ovd","ancho":"140","alto":"105","destomtom":"Gratuito: Si, Pernocta: Si","id_member":"656","date":null,"topic_id":"6739"},{"id":"262","icono":"0","nombre":"Parking Ruta del Lago del Valle","lat":"-6.194293","lng":"43.071129","html":null,"htmlp":null,"link":"http:\/\/www.furgovw.org\/index.php?topic=6640.0","imagen":"http:\/\/www.furgovw.org\/mapa_imagenes\/parking_ruta_del_lago.jpg","autor":"miguel.ovd","ancho":"140","alto":"94","destomtom":"Gratuito: Si, Pernocta: Si Agua: Si WC:no","id_member":"656","date":null,"topic_id":"6640"},{"id":"266","icono":"0","nombre":"San Miguel de Aralar","lat":"-1.96592","lng":"42.946811","html":null,"htmlp":null,"link":"http:\/\/www.furgovw.org\/index.php?topic=6658.msg79737#msg79737","imagen":"http:\/\/www.furgovw.org\/mapa_imagenes\/santuar3yc4.jpg","autor":"panadero","ancho":"140","alto":"94","destomtom":"Gratuito;Agua:no;Wc:no","id_member":"2179","date":null,"topic_id":"6658"},{"id":"267","icono":"0","nombre":"Parque de Landa","lat":"-2.584872","lng":"42.951409","html":null,"htmlp":null,"link":"http:\/\/www.furgovw.org\/index.php?topic=163.0","imagen":"http:\/\/www.furgovw.org\/mapa_imagenes\/parque_landa.jpg","autor":"Zurbo","ancho":"140","alto":"105","destomtom":"Gratuito: Si, Pernocta: Si Agua: Si WC:si","id_member":"20","date":null,"topic_id":"163"},{"id":"271","icono":"0","nombre":"Parque de Garaio","lat":"-2.535284","lng":"42.900985","html":null,"htmlp":null,"link":"http:\/\/www.furgovw.org\/index.php?topic=162.msg576#msg576","imagen":"http:\/\/www.furgovw.org\/mapa_imagenes\/rutaverde2.jpg","autor":"Zurbo","ancho":"140","alto":"140","destomtom":"(Gratuito;Agua:no;Wc:no)","id_member":"20","date":null,"topic_id":"162"},{"id":"272","icono":"0","nombre":"Valle del Karrantza","lat":"-3.356581","lng":"43.220564","html":null,"htmlp":null,"link":"http:\/\/www.furgovw.org\/index.php?topic=567.msg3205#msg3205","imagen":"http:\/\/www.furgovw.org\/mapa_imagenes\/vallecarranza1.jpg","autor":"akelarre","ancho":"140","alto":"112","destomtom":"Gratuito: Si, Pernocta: Si","id_member":"220","date":null,"topic_id":"567"},{"id":"274","icono":"2","nombre":"Embalse Ullbarri Gamboa","lat":"-2.581615","lng":"42.915138","html":null,"htmlp":null,"link":"http:\/\/www.furgovw.org\/index.php?topic=164.msg578#msg578","imagen":"http:\/\/www.furgovw.org\/mapa_imagenes\/rutaverde1_1.jpg","autor":"Zurbo","ancho":"140","alto":"141","destomtom":"Gratuito: Si","id_member":"20","date":null,"topic_id":"164"},{"id":"277","icono":"1","nombre":"Area Ac Capbreton","lat":"-1.447191","lng":"43.63606","html":null,"htmlp":null,"link":"http:\/\/www.furgovw.org\/index.php?topic=1273.0","imagen":"http:\/\/www.furgovw.org\/mapa_imagenes\/capbreton.jpg","autor":"akelarre","ancho":"140","alto":"105","destomtom":"(12eur\/noche;Agua:si;WC:si;vaciado:si;Elect:?)","id_member":"220","date":null,"topic_id":"1273"},{"id":"279","icono":"4","nombre":"Autocamping Trojska (Praga)","lat":"14.427729","lng":"50.117214","html":null,"htmlp":null,"link":"http:\/\/www.furgovw.org\/index.php?topic=7027.msg84293#msg84293","imagen":"http:\/\/www.furgovw.org\/mapa_imagenes\/CAMPINGPRAGASITUACION_1.jpg","autor":"dnl","ancho":"140","alto":"113","destomtom":"Tarifa:8eur\/dia(furgo+2pax);tranvia al centro de Praga","id_member":"1059","date":null,"topic_id":"7027"},{"id":"280","icono":"0","nombre":"Nuestra Se\u00c3\u00b1ora del Yugo ","lat":"-1.586065","lng":"42.205602","html":null,"htmlp":null,"link":"http:\/\/www.furgovw.org\/index.php?topic=6999.msg83579#msg83579","imagen":"http:\/\/www.furgovw.org\/mapa_imagenes\/Bardenas2.jpg","autor":"panadero","ancho":"140","alto":"140","destomtom":"Gratuito: Si , Pernocta: Si","id_member":"2179","date":null,"topic_id":"6999"},{"id":"281","icono":"0","nombre":"Beynac et Cazenac","lat":"1.145459","lng":"44.844771","html":null,"htmlp":null,"link":"http:\/\/www.furgovw.org\/index.php?topic=4725.msg49672#msg49672","imagen":"http:\/\/www.furgovw.org\/mapa_imagenes\/beynac5dj1.jpg","autor":"izas","ancho":"140","alto":"105","destomtom":"(Gratuito;agua:no;wc:no)","id_member":"1203","date":null,"topic_id":"4725"},{"id":"284","icono":"4","nombre":"Circo de Gredos Camping de Avila","lat":"-5.173531","lng":"40.357271","html":null,"htmlp":null,"link":"http:\/\/www.furgovw.org\/index.php?topic=7064.0","imagen":"http:\/\/www.furgovw.org\/mapa_imagenes\/camping_avila_1.jpg","autor":"Supernieva","ancho":"140","alto":"105","destomtom":"Gratuito: No, Pernocta: Si Agua: Si WC:si","id_member":"446","date":null,"topic_id":"7064"},{"id":"286","icono":"0","nombre":"Playa de Xivares","lat":"-5.72238","lng":"43.569039","html":null,"htmlp":null,"link":"http:\/\/www.furgovw.org\/index.php?topic=7126.0","imagen":"http:\/\/www.furgovw.org\/mapa_imagenes\/xivares_1.jpg","autor":"kalimocho","ancho":"140","alto":"93","destomtom":"Gratuito fuera de verano, Agua: No, WC: hay un bar","id_member":"4","date":null,"topic_id":"7126"},{"id":"288","icono":"0","nombre":"Bicorp","lat":"-0.866697","lng":"39.086258","html":null,"htmlp":null,"link":"http:\/\/www.furgovw.org\/index.php?topic=7227.msg86532#new","imagen":"http:\/\/www.furgovw.org\/mapa_imagenes\/bicorp_2.jpg","autor":"boineta","ancho":"140","alto":"105","destomtom":"Gratuito: Si, Pernocta: Si Agua: No WC:No","id_member":"1518","date":null,"topic_id":"7227"},{"id":"289","icono":"0","nombre":"Playa de Arnao (Asturias)","lat":"-5.983188","lng":"43.576903","html":null,"htmlp":null,"link":"http:\/\/www.furgovw.org\/index.php?topic=7194.msg86173#msg86173","imagen":"http:\/\/www.furgovw.org\/mapa_imagenes\/playa_arnao4.jpg","autor":"xogux","ancho":"140","alto":"105","destomtom":"Gratuito: No, Pernocta: Si Agua: Si WC:No","id_member":"2348","date":null,"topic_id":"7194"},{"id":"290","icono":"4","nombre":"Serpa (Portugal)","lat":"-7.687683","lng":"37.970185","html":null,"htmlp":null,"link":"http:\/\/www.furgovw.org\/index.php?topic=1364.msg9630#msg9630","imagen":"http:\/\/www.furgovw.org\/mapa_imagenes\/serpa3.jpg","autor":"laiak","ancho":"140","alto":"109","destomtom":"Gratuito: No, Pernocta: Si Agua: Si WC:si","id_member":"895","date":null,"topic_id":"1364"},{"id":"293","icono":"0","nombre":"Praia Melides (Portugal)","lat":"-8.792818","lng":"38.129139","html":null,"htmlp":null,"link":"http:\/\/www.furgovw.org\/index.php?topic=1362.msg9628#msg9628","imagen":"http:\/\/www.furgovw.org\/mapa_imagenes\/melides1.jpg","autor":"laiak","ancho":"140","alto":"105","destomtom":"Gratuito: Si , Pernocta: Si","id_member":"895","date":null,"topic_id":"1362"},{"id":"296","icono":"0","nombre":"Linza","lat":"-0.80389","lng":"42.896277","html":null,"htmlp":null,"link":"http:\/\/www.furgovw.org\/index.php?topic=1849.msg88122#new","imagen":"http:\/\/www.furgovw.org\/mapa_imagenes\/linza.jpg","autor":"CIOMC","ancho":"140","alto":"105","destomtom":"Gratuito: Si , Pernocta: Si","id_member":"226","date":null,"topic_id":"1849"},{"id":"299","icono":"0","nombre":"Parque-playa de Moniello (Luanco)","lat":"-5.796726","lng":"43.631618","html":null,"htmlp":null,"link":"http:\/\/www.furgovw.org\/index.php?topic=7127.0","imagen":"http:\/\/www.furgovw.org\/mapa_imagenes\/kdada_gijon_2006_12.jpg","autor":"kalimocho","ancho":"140","alto":"93","destomtom":"Gratuito: Si, Pernocta: Si Agua: Si WC:No","id_member":"4","date":null,"topic_id":"7127"},{"id":"300","icono":"0","nombre":"Ericeira (Portugal)","lat":"-9.403514","lng":"38.960789","html":null,"htmlp":null,"link":"http:\/\/www.furgovw.org\/index.php?topic=1361.msg9625#msg9625","imagen":"http:\/\/www.furgovw.org\/mapa_imagenes\/ericeira1.jpg","autor":"laiak","ancho":"140","alto":"93","destomtom":"Gratuito: Si , Pernocta: Si","id_member":"895","date":null,"topic_id":"1361"},{"id":"301","icono":"0","nombre":"Praia de Quiaios (Portugal)","lat":"-8.892703","lng":"40.21693","html":null,"htmlp":null,"link":"http:\/\/www.furgovw.org\/index.php?topic=1359.msg9622#msg9622","imagen":"http:\/\/www.furgovw.org\/mapa_imagenes\/quiaios1.jpg","autor":"laiak","ancho":"140","alto":"105","destomtom":"Gratuito; Agua: si; Wc: si","id_member":"895","date":null,"topic_id":"1359"},{"id":"302","icono":"0","nombre":"Castillo de Loarre","lat":"-0.610728","lng":"42.327712","html":null,"htmlp":null,"link":"http:\/\/www.furgovw.org\/index.php?topic=7639.new;boardseen#new","imagen":"http:\/\/www.furgovw.org\/mapa_imagenes\/Castillo_Loarre.jpg","autor":"Xabi_Portu","ancho":"140","alto":"105","destomtom":"Gratuito: Si, Pernocta: Si, Agua: No","id_member":"1145","date":null,"topic_id":"7639"},{"id":"303","icono":"0","nombre":"Embalse de Garcia Sola","lat":"-5.128384","lng":"39.222313","html":null,"htmlp":null,"link":"http:\/\/www.furgovw.org\/index.php?topic=7654.msg92376#msg92376","imagen":"http:\/\/www.furgovw.org\/mapa_imagenes\/garcia_sola.jpg","autor":"pachu","ancho":"140","alto":"105","destomtom":"Gratuito: Si , Pernocta: Si","id_member":"2159","date":null,"topic_id":"7654"},{"id":"304","icono":"0","nombre":"Furadouro (Portugal)","lat":"-8.673372","lng":"40.876501","html":null,"htmlp":null,"link":"http:\/\/www.furgovw.org\/index.php?topic=1356.msg9612#msg9612","imagen":"http:\/\/www.furgovw.org\/mapa_imagenes\/Furadouro1.jpg","autor":"laiak","ancho":"140","alto":"75","destomtom":"(Gratuito;Agua:no;Wc;no)","id_member":"895","date":null,"topic_id":"1356"},{"id":"306","icono":"0","nombre":"Tabernes de la Valldigna","lat":"-0.208322","lng":"39.072037","html":null,"htmlp":null,"link":"http:\/\/www.furgovw.org\/index.php?topic=7868.msg95313#msg95313","imagen":"http:\/\/www.furgovw.org\/mapa_imagenes\/tavernes.jpg","autor":"boineta","ancho":"140","alto":"91","destomtom":"Gratuito: Si, Pernocta: Si Agua: No WC:No","id_member":"1518","date":null,"topic_id":"7868"},{"id":"308","icono":"4","nombre":"Camping La Domaine de Ste Madeleine (Sospel)","lat":"7.416486","lng":"43.896861","html":null,"htmlp":null,"link":"http:\/\/www.furgovw.org\/index.php?topic=7101.msg84826#msg84826","imagen":"http:\/\/www.furgovw.org\/mapa_imagenes\/copiadedsc06360pz7_1.jpg","autor":"Binder","ancho":"140","alto":"105","destomtom":"(26eur\/dia;Tienda,lavadora,wifi)","id_member":"244","date":null,"topic_id":"7101"},{"id":"309","icono":"0","nombre":"Opakua","lat":"-2.321414","lng":"42.818221","html":null,"htmlp":null,"link":"http:\/\/www.furgovw.org\/index.php?topic=7738.msg93601#msg93601","imagen":"http:\/\/www.furgovw.org\/mapa_imagenes\/okapua3.jpg","autor":"dorothy","ancho":"140","alto":"96","destomtom":"(Gratuito;Agua:no;Wc:no)","id_member":"125","date":null,"topic_id":"7738"},{"id":"314","icono":"0","nombre":"Castroviejo","lat":"-2.923522","lng":"41.967404","html":null,"htmlp":null,"link":"http:\/\/www.furgovw.org\/index.php?topic=8305.msg100603#msg100603","imagen":"http:\/\/www.furgovw.org\/mapa_imagenes\/IMAG1062.jpg","autor":"CIOMC","ancho":"140","alto":"187","destomtom":"Agua: SI WC: NO Gratuito: SI","id_member":"226","date":null,"topic_id":"8305"},{"id":"315","icono":"1","nombre":"Burela","lat":"-7.358383","lng":"43.653202","html":null,"htmlp":null,"link":"http:\/\/www.furgovw.org\/index.php?topic=8489.msg102846#new","imagen":"http:\/\/www.furgovw.org\/mapa_imagenes\/burela03.jpg","autor":"kalimocho","ancho":"140","alto":"75","destomtom":"Gratuito: Si, Pernocta: Si Agua: Si WC:No","id_member":"4","date":null,"topic_id":"8489"},{"id":"320","icono":"0","nombre":"Parque de Borbollon (Espejo)","lat":"-4.558296","lng":"37.640301","html":null,"htmlp":null,"link":"http:\/\/www.furgovw.org\/index.php?topic=8369.msg101420#msg101420","imagen":"http:\/\/www.furgovw.org\/mapa_imagenes\/espejo.jpg","autor":"cordobes","ancho":"140","alto":"105","destomtom":"(Gratuito;Agua:si;Wc:si)","id_member":"98","date":null,"topic_id":"8369"},{"id":"321","icono":"0","nombre":"Samouqueira","lat":"-8.814715","lng":"37.398682","html":null,"htmlp":null,"link":"http:\/\/www.furgovw.org\/index.php?topic=1363.0;topicseen","imagen":"http:\/\/www.furgovw.org\/mapa_imagenes\/samoqueira2qx3_1.jpg","autor":"laiak","ancho":"140","alto":"105","destomtom":"Gratuito: Si , Pernocta: Si","id_member":"895","date":null,"topic_id":"1363"},{"id":"322","icono":"0","nombre":"Riopinos (Leon)","lat":"-5.412617","lng":"43.045637","html":null,"htmlp":null,"link":"http:\/\/www.furgovw.org\/index.php?topic=9229.0","imagen":"http:\/\/www.furgovw.org\/mapa_imagenes\/riopinos2007002640x480nn1.jpg","autor":"RICHO","ancho":"140","alto":"105","destomtom":"Gratuito: Si , Pernocta: Si","id_member":"2243","date":null,"topic_id":"9229"},{"id":"324","icono":"1","nombre":"Area ac Astorga","lat":"-6.065993","lng":"42.45136","html":null,"htmlp":null,"link":"http:\/\/www.furgovw.org\/index.php?topic=9390.0","imagen":"http:\/\/www.furgovw.org\/mapa_imagenes\/astorga.jpg","autor":"RICHO","ancho":"140","alto":"105","destomtom":"Gratuito: Si, Pernocta: Si Agua: Si WC:No","id_member":"2243","date":null,"topic_id":"9390"},{"id":"326","icono":"4","nombre":"Camping los pradones","lat":"-6.186976","lng":"43.560926","html":null,"htmlp":null,"link":"http:\/\/www.furgovw.org\/index.php?topic=9769.0","imagen":"http:\/\/www.furgovw.org\/mapa_imagenes\/01.jpg","autor":"kalimocho","ancho":"140","alto":"87","destomtom":"Camping en la playa de artedo","id_member":"4","date":null,"topic_id":"9769"},{"id":"327","icono":"0","nombre":"Playa de San Pedro de la Ribera","lat":"-6.222124","lng":"43.578712","html":null,"htmlp":null,"link":"http:\/\/www.furgovw.org\/index.php?topic=9770.0","imagen":"http:\/\/www.furgovw.org\/mapa_imagenes\/06.jpg","autor":"kalimocho","ancho":"140","alto":"40","destomtom":"Gratuito: Si, Agua: No, WC: No","id_member":"4","date":null,"topic_id":"9770"},{"id":"329","icono":"0","nombre":"Luarca","lat":"-6.54017","lng":"43.54805","html":null,"htmlp":null,"link":"http:\/\/www.furgovw.org\/index.php?topic=9772.0","imagen":"http:\/\/www.furgovw.org\/mapa_imagenes\/05.jpg","autor":"kalimocho","ancho":"140","alto":"93","destomtom":"Agua: Si, Gratuito: Si, WC: No","id_member":"4","date":null,"topic_id":"9772"},{"id":"330","icono":"0","nombre":"Playa de Frexulfe","lat":"-6.67443","lng":"43.559107","html":null,"htmlp":null,"link":"http:\/\/www.furgovw.org\/index.php?topic=9792.0","imagen":"http:\/\/www.furgovw.org\/mapa_imagenes\/frexulfe2.jpg","autor":"ooznak","ancho":"140","alto":"105","destomtom":"Agua: No, WC: No, Gratuito: Si","id_member":"14","date":null,"topic_id":"9792"},{"id":"331","icono":"0","nombre":"Playa de Otur","lat":"-6.597633","lng":"43.552094","html":null,"htmlp":null,"link":"http:\/\/www.furgovw.org\/index.php?topic=9775.0","imagen":"http:\/\/www.furgovw.org\/mapa_imagenes\/otur.jpg","autor":"ooznak","ancho":"140","alto":"105","destomtom":"(Gratuito;Agua:no;Wc:no)","id_member":"14","date":null,"topic_id":"9775"},{"id":"334","icono":"0","nombre":"Navia","lat":"-6.720843","lng":"43.554644","html":null,"htmlp":null,"link":"http:\/\/www.furgovw.org\/index.php?topic=9800.0","imagen":"http:\/\/www.furgovw.org\/mapa_imagenes\/navia.jpg","autor":"ooznak","ancho":"140","alto":"105","destomtom":"Gratuito: Si, Agua: No, WC: No","id_member":"14","date":null,"topic_id":"9800"},{"id":"337","icono":"0","nombre":"San Martin de Elines","lat":"-3.859575","lng":"42.833469","html":null,"htmlp":null,"link":"http:\/\/www.furgovw.org\/index.php?topic=10025.msg125232#msg125232","imagen":"http:\/\/www.furgovw.org\/mapa_imagenes\/SemanaSantaAbril2007139.jpg","autor":"mungitx@","ancho":"140","alto":"105","destomtom":"Gratuito; Agua: Si; WC: No","id_member":"2217","date":null,"topic_id":"10025"},{"id":"339","icono":"0","nombre":"Alarc\u00f3n (Cuenca)","lat":"-2.088593","lng":"39.545825","html":null,"htmlp":null,"link":"http:\/\/www.furgovw.org\/index.php?topic=9757.0","imagen":"http:\/\/www.furgovw.org\/mapa_imagenes\/sunp0202dt3.jpg","autor":"manurro","ancho":"140","alto":"105","destomtom":"Gratuito: No, Pernocta: Si Agua: Si WC:No","id_member":"288","date":null,"topic_id":"9757"},{"id":"340","icono":"0","nombre":"Embalse Cuerda del Pozo","lat":"-2.726154","lng":"41.862274","html":null,"htmlp":null,"link":"http:\/\/www.furgovw.org\/index.php?topic=9828.msg122327#msg122327","imagen":"http:\/\/www.furgovw.org\/mapa_imagenes\/soriasemanasanta2007018np8.jpg","autor":"RICHO","ancho":"140","alto":"105","destomtom":"Gratuito: Si, Pernocta: Si Agua: No WC:No","id_member":"2243","date":null,"topic_id":"9828"},{"id":"343","icono":"0","nombre":"Hayedo de Diustes (Soria)","lat":"-2.408087","lng":"42.104336","html":null,"htmlp":null,"link":"http:\/\/www.furgovw.org\/index.php?topic=10086.msg125903#msg125903","imagen":"http:\/\/www.furgovw.org\/mapa_imagenes\/ayedo.jpg","autor":"Br1","ancho":"140","alto":"93","destomtom":"Gratuito: Si, Pernocta: Si Agua: Si WC: No","id_member":"3073","date":null,"topic_id":"10086"},{"id":"345","icono":"0","nombre":"El Covar\u00f3n , Muskiz (Vizcaya)","lat":"-3.143275","lng":"43.350562","html":null,"htmlp":null,"link":"http:\/\/www.furgovw.org\/index.php?topic=9838.0","imagen":"http:\/\/www.furgovw.org\/mapa_imagenes\/vizcaya.jpg","autor":"Goros","ancho":"140","alto":"105","destomtom":"Gratuito: Si, Pernocta: Si Agua: Si WC:No","id_member":"1973","date":null,"topic_id":"9838"},{"id":"347","icono":"5","nombre":"Ciclos y caravanas Oiartzun","lat":"-1.882321","lng":"43.294286","html":null,"htmlp":null,"link":"http:\/\/www.furgovw.org\/index.php?topic=10132.0","imagen":"http:\/\/www.furgovw.org\/mapa_imagenes\/caravanas_oiartzun.jpg","autor":"ooznak","ancho":"140","alto":"11","destomtom":"Tienda","id_member":"14","date":null,"topic_id":"10132"},{"id":"348","icono":"0","nombre":"Lago de Le Houga","lat":"-0.190673","lng":"43.76691","html":null,"htmlp":null,"link":"http:\/\/www.furgovw.org\/index.php?topic=9963.msg124228#msg124228","imagen":"http:\/\/www.furgovw.org\/mapa_imagenes\/lago.jpg","autor":"cresteo","ancho":"140","alto":"105","destomtom":"Gratuito: Si, Pernocta: Si Agua: Si WC:si","id_member":"998","date":null,"topic_id":"9963"},{"id":"350","icono":"0","nombre":"Odeceixe","lat":"-8.794631","lng":"37.439276","html":null,"htmlp":null,"link":"http:\/\/www.furgovw.org\/index.php?topic=10253.0","imagen":"http:\/\/www.furgovw.org\/mapa_imagenes\/odeceixe.jpg","autor":"jmbotula","ancho":"140","alto":"105","destomtom":"Gratuito: si Pernocta: si WC: no Agua:si","id_member":"2866","date":null,"topic_id":"10253"},{"id":"351","icono":"5","nombre":"Caravanas Itsasmendi [Tienda]","lat":"-2.025486","lng":"43.218227","html":null,"htmlp":null,"link":"http:\/\/www.furgovw.org\/index.php?topic=10333.0","imagen":"http:\/\/www.furgovw.org\/mapa_imagenes\/Itsasmendi.jpg","autor":"jmbotula","ancho":"140","alto":"26","destomtom":"Tienda","id_member":"2866","date":null,"topic_id":"10333"},{"id":"352","icono":"2","nombre":"via verde galdames (parkeatxuriaga)","lat":"-3.11221","lng":"43.2691","html":null,"htmlp":null,"link":"http:\/\/www.furgovw.org\/index.php?topic=10129.0","imagen":"http:\/\/www.furgovw.org\/mapa_imagenes\/fitxa15_2.jpg","autor":"akelarre","ancho":"140","alto":"95","destomtom":"Gratuito: Si, Agua: Si, WC: en verano","id_member":"220","date":null,"topic_id":"10129"},{"id":"353","icono":"0","nombre":"Carrapateira-Acantilados","lat":"-8.914418","lng":"37.193775","html":null,"htmlp":null,"link":"http:\/\/www.furgovw.org\/index.php?topic=10252.0","imagen":"http:\/\/www.furgovw.org\/mapa_imagenes\/dsc020195li.jpg","autor":"jmbotula","ancho":"140","alto":"105","destomtom":"Gratuito: si Pernocta: si WC: no Agua:no","id_member":"2866","date":null,"topic_id":"10252"},{"id":"354","icono":"0","nombre":"VilaNova de Milfontes (Portugal)","lat":"-8.78395","lng":"37.714699","html":null,"htmlp":null,"link":"http:\/\/www.furgovw.org\/index.php?topic=10255.0","imagen":"http:\/\/www.furgovw.org\/mapa_imagenes\/portugall.jpg","autor":"jmbotula","ancho":"140","alto":"105","destomtom":"Gratuito: si Pernocta: si WC: no Agua:no","id_member":"2866","date":null,"topic_id":"10255"},{"id":"355","icono":"0","nombre":"Estacion esqui El Tarter","lat":"1.648765","lng":"42.580057","html":null,"htmlp":null,"link":"http:\/\/www.furgovw.org\/index.php?topic=9899.msg123265#msg123265","imagen":"http:\/\/www.furgovw.org\/mapa_imagenes\/furgoperfecto_andorra_2.jpg","autor":"magurio","ancho":"140","alto":"88","destomtom":"Gratuito: si Pernocta: si WC: no Agua:no","id_member":"2308","date":null,"topic_id":"9899"},{"id":"356","icono":"0","nombre":"Playa de Carnota","lat":"-9.102055","lng":"42.835821","html":null,"htmlp":null,"link":"http:\/\/www.furgovw.org\/index.php?topic=10417.0","imagen":"http:\/\/www.furgovw.org\/mapa_imagenes\/playacarnotaco8.jpg","autor":"trakamon","ancho":"140","alto":"93","destomtom":"Gratuito: Si, Agua: Si, WC: no","id_member":"2785","date":null,"topic_id":"10417"},{"id":"357","icono":"1","nombre":" Area de ac playa de Barra\u00f1a (Boiro)","lat":"-8.879614","lng":"42.643556","html":null,"htmlp":null,"link":"http:\/\/www.furgovw.org\/index.php?topic=10467.0","imagen":"http:\/\/www.furgovw.org\/mapa_imagenes\/corua.jpg","autor":"falco_vw","ancho":"140","alto":"105","destomtom":"(Gratuito; Agua:Si:Wc:en verano)","id_member":"108","date":null,"topic_id":"10467"},{"id":"359","icono":"2","nombre":"V. V. del ff.cc. Vasco-Navarro (acceso por Ancin)","lat":"-2.189793","lng":"42.661198","html":null,"htmlp":null,"link":"http:\/\/www.furgovw.org\/index.php?topic=10530.0","imagen":"http:\/\/www.furgovw.org\/mapa_imagenes\/viaverde.jpg","autor":"Isakis","ancho":"140","alto":"187","destomtom":"(20 km de via verde)","id_member":"2100","date":null,"topic_id":"10530"},{"id":"360","icono":"0","nombre":"Rupit","lat":"2.463083","lng":"42.024941","html":null,"htmlp":null,"link":"http:\/\/www.furgovw.org\/index.php?topic=10623.msg133376#msg133376","imagen":"http:\/\/www.furgovw.org\/mapa_imagenes\/osona.jpg","autor":"sage","ancho":"140","alto":"105","destomtom":"Gratuito: Si , Pernocta: Si","id_member":"3207","date":null,"topic_id":"10623"},{"id":"361","icono":"0","nombre":"Ca\u00f1on del rio Lobos (Ucero)","lat":"-3.05392","lng":"41.73832","html":null,"htmlp":null,"link":"http:\/\/www.furgovw.org\/index.php?topic=10798.0","imagen":"http:\/\/www.furgovw.org\/mapa_imagenes\/800px_Ucero_Castillo.jpg","autor":"akelarre","ancho":"140","alto":"104","destomtom":"Gratuito: No, Pernocta: Si Agua: Si WC:No","id_member":"220","date":null,"topic_id":"10798"},{"id":"362","icono":"0","nombre":"Covarrubias (Burgos)","lat":"-3.518543","lng":"42.056606","html":null,"htmlp":null,"link":"http:\/\/www.furgovw.org\/index.php?topic=10795.0","imagen":"http:\/\/www.furgovw.org\/mapa_imagenes\/p4080001qj4.jpg","autor":"calimero","ancho":"140","alto":"105","destomtom":"Gratuito: si Pernocta: si WC: en verano  Agua:si","id_member":"1066","date":null,"topic_id":"10795"},{"id":"363","icono":"0","nombre":"El Chorro","lat":"-4.765824","lng":"36.912028","html":null,"htmlp":null,"link":"http:\/\/www.furgovw.org\/index.php?topic=11320.0","imagen":"http:\/\/www.furgovw.org\/mapa_imagenes\/chorro.jpg","autor":"manurro","ancho":"140","alto":"105","destomtom":"Gratuito: Si, Agua: Si, WC: no","id_member":"288","date":null,"topic_id":"11320"},{"id":"364","icono":"0","nombre":"Villarluengo (Teruel)","lat":"-0.529318","lng":"40.649811","html":null,"htmlp":null,"link":"http:\/\/www.furgovw.org\/index.php?topic=10941.msg137370#msg137370","imagen":"http:\/\/www.furgovw.org\/mapa_imagenes\/villarluengo.jpg","autor":"ma\u00f1o","ancho":"140","alto":"82","destomtom":"Gratuito: Si, Pernocta: Si Agua: Si WC: No","id_member":"2239","date":null,"topic_id":"10941"},{"id":"365","icono":"0","nombre":"Trujillanos (Badajoz)","lat":"-6.248882","lng":"38.95437","html":null,"htmlp":null,"link":"http:\/\/www.furgovw.org\/index.php?topic=11221.0","imagen":"http:\/\/www.furgovw.org\/mapa_imagenes\/puentemayo07bajadozyccefn6th.jpg","autor":"Palomares","ancho":"140","alto":"119","destomtom":"Gratuito: Si, Pernocta: Si Agua:  No WC:No","id_member":"1201","date":null,"topic_id":"11221"},{"id":"366","icono":"0","nombre":"Caba\u00f1as del Castillo (C\u00e1ceres)","lat":"-5.509987","lng":"39.560442","html":null,"htmlp":null,"link":"http:\/\/www.furgovw.org\/index.php?topic=11222.0","imagen":"http:\/\/www.furgovw.org\/mapa_imagenes\/cabaasdelcastillocu8th.jpg","autor":"Palomares","ancho":"140","alto":"119","destomtom":"Gratuito: Si, Pernocta: Si Agua: No WC:No","id_member":"1201","date":null,"topic_id":"11222"},{"id":"367","icono":"0","nombre":"Langeac","lat":"3.499092","lng":"45.099836","html":null,"htmlp":null,"link":"http:\/\/www.furgovw.org\/index.php?topic=11258.0","imagen":"http:\/\/www.furgovw.org\/mapa_imagenes\/francia.jpg","autor":"tra\u00ef\u00bf\u00bdfi:k","ancho":"140","alto":"105","destomtom":"(Gratuito;Agua:si;Wc:no;galibo 2m.)","id_member":"1126","date":null,"topic_id":"11258"},{"id":"368","icono":"0","nombre":" Parking pra\u00e7a Dom Fernando II (Sintra)","lat":"-9.379916","lng":"38.790239","html":null,"htmlp":null,"link":"http:\/\/www.furgovw.org\/index.php?topic=11347.0","imagen":"http:\/\/www.furgovw.org\/mapa_imagenes\/sintra.jpg","autor":"Tartalo","ancho":"140","alto":"105","destomtom":"Gratuito: si Agua: No WC: No","id_member":"620","date":null,"topic_id":"11347"},{"id":"369","icono":"0","nombre":"Playa Nazare","lat":"-9.07372","lng":"39.58884","html":null,"htmlp":null,"link":"http:\/\/www.furgovw.org\/index.php?topic=11344.0","imagen":"http:\/\/www.furgovw.org\/mapa_imagenes\/Nazareplaya.jpg","autor":"Tartalo","ancho":"140","alto":"105","destomtom":"Gratuito: si Agua: No WC: No","id_member":"620","date":null,"topic_id":"11344"},{"id":"370","icono":"0","nombre":"Parking en Lagos","lat":"-8.672032","lng":"37.110725","html":null,"htmlp":null,"link":"http:\/\/www.furgovw.org\/index.php?topic=11346.0","imagen":"http:\/\/www.furgovw.org\/mapa_imagenes\/playalagos_1.jpg","autor":"Tartalo","ancho":"140","alto":"105","destomtom":"Gratuito: si Agua: No WC: No","id_member":"620","date":null,"topic_id":"11346"},{"id":"372","icono":"0","nombre":"Blanes, Girona, Catalunya","lat":"2.78482","lng":"41.6689","html":null,"htmlp":null,"link":"http:\/\/www.furgovw.org\/index.php?topic=11473.0","imagen":"http:\/\/www.furgovw.org\/mapa_imagenes\/Blanesnit.jpg","autor":"Plumber","ancho":"140","alto":"88","destomtom":"Gratuito: Si, Pernocta: Si Agua: Si WC:Si Duchas: Si","id_member":"707","date":null,"topic_id":"11473"},{"id":"374","icono":"0","nombre":"Le Puy en Velay (Alto Loira)","lat":"3.883377","lng":"45.050661","html":null,"htmlp":null,"link":"http:\/\/www.furgovw.org\/index.php?topic=11368.0","imagen":"http:\/\/www.furgovw.org\/mapa_imagenes\/1000919jj8.jpg","autor":"tra\u00b4fi:k","ancho":"140","alto":"105","destomtom":"Gratuito: Si, Pernocta: Si Agua:  No WC:No","id_member":"1126","date":null,"topic_id":"11368"},{"id":"375","icono":"4","nombre":"Camping Los Arenales","lat":"-3.69623","lng":"38.88064","html":null,"htmlp":null,"link":"http:\/\/www.furgovw.org\/index.php?topic=10968.msg137635#msg137635","imagen":"http:\/\/www.furgovw.org\/mapa_imagenes\/gralcampingqp3.jpg","autor":"eneko","ancho":"140","alto":"93","destomtom":"Gratuito: No, Pernocta: Si Agua: Si WC:si","id_member":"298","date":null,"topic_id":"10968"},{"id":"376","icono":"0","nombre":"Parking de la Estaci\u00f3n de Autobuses (Almagro)","lat":"-3.70566","lng":"38.88764","html":null,"htmlp":null,"link":"http:\/\/www.furgovw.org\/index.php?topic=10968.new#new","imagen":"http:\/\/www.furgovw.org\/mapa_imagenes\/almagro6xq0.jpg","autor":"eneko","ancho":"140","alto":"105","destomtom":"Gratuito: Si, Pernocta: Si Agua:  No WC:El de la estaci\u00f3n","id_member":"298","date":null,"topic_id":"10968"},{"id":"377","icono":"0","nombre":"Cajarc","lat":"1.846067","lng":"44.484577","html":null,"htmlp":null,"link":"http:\/\/www.furgovw.org\/index.php?topic=11675.msg144771#new","imagen":"http:\/\/www.furgovw.org\/mapa_imagenes\/franc.jpg","autor":"tra\u00b4fi:k","ancho":"140","alto":"105","destomtom":"(Gratuito;Agua:si;Wc:no)","id_member":"1126","date":null,"topic_id":"11675"},{"id":"378","icono":"0","nombre":"Mirador de St. Cyr (Cahors)","lat":"1.450539","lng":"44.443401","html":null,"htmlp":null,"link":"http:\/\/www.furgovw.org\/index.php?topic=11676.msg144785#new","imagen":"http:\/\/www.furgovw.org\/mapa_imagenes\/pont3.jpg","autor":"tra\u00b4fi:k","ancho":"140","alto":"94","destomtom":"Gratuito: Si, Pernocta: Si Agua: Si WC:si","id_member":"1126","date":null,"topic_id":"11676"},{"id":"379","icono":"0","nombre":"Area recreativa de Mirva (Bur\u00f3n)","lat":"-5.057831","lng":"43.027992","html":null,"htmlp":null,"link":"http:\/\/www.furgovw.org\/index.php?topic=11684.msg144877#new","imagen":"http:\/\/www.furgovw.org\/mapa_imagenes\/leon.jpg","autor":"tra\u00b4fi:k","ancho":"140","alto":"105","destomtom":"Gratuito: Si, Agua: Si, WC: no","id_member":"1126","date":null,"topic_id":"11684"},{"id":"381","icono":"4","nombre":"Pals , Camping","lat":"3.192429","lng":"42.001759","html":null,"htmlp":null,"link":"http:\/\/www.furgovw.org\/index.php?topic=11685.msg144892#msg144892","imagen":"http:\/\/www.furgovw.org\/mapa_imagenes\/Pals2_1.jpg","autor":"Plumber","ancho":"140","alto":"93","destomtom":"Gratuito: No, Pernocta: Si Agua: Si WC:si","id_member":"707","date":null,"topic_id":"11685"},{"id":"382","icono":"0","nombre":"Playa Pita. Embalse de la Cuerda del Pozo","lat":"-2.780743","lng":"41.851374","html":null,"htmlp":null,"link":"http:\/\/www.furgovw.org\/index.php?topic=10797.0","imagen":"http:\/\/www.furgovw.org\/mapa_imagenes\/playapita.jpg","autor":"akelarre","ancho":"140","alto":"105","destomtom":"Gratuito: Si, Agua: no; WC: en verano","id_member":"220","date":null,"topic_id":"10797"},{"id":"383","icono":"0","nombre":"Caion","lat":"-8.609269","lng":"43.314203","html":null,"htmlp":null,"link":"http:\/\/www.furgovw.org\/index.php?topic=11671.msg144715#msg144715","imagen":"http:\/\/www.furgovw.org\/mapa_imagenes\/53pv87a.jpg","autor":"LOURO","ancho":"140","alto":"104","destomtom":"Gratuito: Si, Agua: Si, WC: no","id_member":"1148","date":null,"topic_id":"11671"},{"id":"384","icono":"0","nombre":"Finestras (Huesca)","lat":"0.543137","lng":"41.996753","html":null,"htmlp":null,"link":"http:\/\/www.furgovw.org\/index.php?topic=11732.0","imagen":"http:\/\/www.furgovw.org\/mapa_imagenes\/boltaa078bz6.jpg","autor":"sataka","ancho":"140","alto":"105","destomtom":"Gratuito: Si, Pernocta: Si Agua:  No WC:No","id_member":"2963","date":null,"topic_id":"11732"},{"id":"386","icono":"0","nombre":"Valle de Bujaruelo","lat":"-0.107611","lng":"42.694114","html":null,"htmlp":null,"link":"http:\/\/www.furgovw.org\/index.php?topic=11815.msg145928#msg145928","imagen":"http:\/\/www.furgovw.org\/mapa_imagenes\/borrar2.jpg","autor":"vwdavide","ancho":"140","alto":"105","destomtom":"(8eur\/noche;Agua:si;Wc:si)","id_member":"852","date":null,"topic_id":"11815"},{"id":"387","icono":"1","nombre":"Area ac Le\u00f3n","lat":"-5.584945","lng":"42.604617","html":null,"htmlp":null,"link":"http:\/\/www.furgovw.org\/index.php?topic=11721.0","imagen":"http:\/\/www.furgovw.org\/mapa_imagenes\/areacabarcenocartelxi1.jpg","autor":"Palomares","ancho":"140","alto":"241","destomtom":"(Gratuito;Agua:si;Wc:si;Vaciado:si;Elec:no)","id_member":"1201","date":null,"topic_id":"11721"},{"id":"388","icono":"4","nombre":"Camping Municipal RIA\u00d1O","lat":"-4.998372","lng":"42.978781","html":null,"htmlp":null,"link":"http:\/\/www.furgovw.org\/index.php?topic=11833.0","imagen":"http:\/\/www.furgovw.org\/mapa_imagenes\/borrar3.jpg","autor":"Pela","ancho":"140","alto":"105","destomtom":"Gratuito: No, Pernocta: Si Agua: Si WC:si","id_member":"2592","date":null,"topic_id":"11833"},{"id":"389","icono":"0","nombre":"Ermita Sant Pau","lat":"0.945489","lng":"41.243482","html":null,"htmlp":null,"link":"http:\/\/www.furgovw.org\/index.php?topic=11739.msg145423#msg145423","imagen":"http:\/\/www.furgovw.org\/mapa_imagenes\/dscn0080p.jpg","autor":"MAK","ancho":"140","alto":"186","destomtom":"Gratuito: Si, Pernocta: Si Agua: Si WC:No","id_member":"112","date":null,"topic_id":"11739"},{"id":"390","icono":"0","nombre":"Cala d en Serra","lat":"1.536493","lng":"39.107898","html":null,"htmlp":null,"link":"http:\/\/www.furgovw.org\/index.php?topic=11790.msg145808#msg145808","imagen":"http:\/\/www.furgovw.org\/mapa_imagenes\/borra1_3.jpg","autor":"lugarejos","ancho":"140","alto":"105","destomtom":"Gratuito: si Pernocta: si WC: no Agua:no","id_member":"396","date":null,"topic_id":"11790"},{"id":"391","icono":"1","nombre":"Trigance (Provenza) \u00c1rea ACs","lat":"6.442108","lng":"43.782993","html":null,"htmlp":null,"link":"http:\/\/www.furgovw.org\/index.php?topic=11743.0","imagen":"http:\/\/www.furgovw.org\/mapa_imagenes\/borra2.jpg","autor":"tra\u00b4fi:k","ancho":"140","alto":"105","destomtom":"Gratuito: Depende de la \u00e9poca del a\u00f1o Pernocta: si WC: Si Agua:si","id_member":"1126","date":null,"topic_id":"11743"},{"id":"392","icono":"0","nombre":"Passo Gavia (Dolomitas)","lat":"10.490227","lng":"46.364699","html":null,"htmlp":null,"link":"http:\/\/www.furgovw.org\/index.php?topic=11751.0","imagen":"http:\/\/www.furgovw.org\/mapa_imagenes\/borra3.jpg","autor":"tra\u00b4fi:k","ancho":"140","alto":"105","destomtom":"Gratuito: si Pernocta: si WC: no Agua:no","id_member":"1126","date":null,"topic_id":"11751"},{"id":"393","icono":"0","nombre":"Cala d Hort","lat":"1.212015","lng":"38.864773","html":null,"htmlp":null,"link":"http:\/\/www.furgovw.org\/index.php?topic=11789.0;topicseen","imagen":"http:\/\/www.furgovw.org\/mapa_imagenes\/borrar4_1.jpg","autor":"lugarejos","ancho":"140","alto":"187","destomtom":"Gratuito: Si, Pernocta: Si Agua:  No WC:No","id_member":"396","date":null,"topic_id":"11789"},{"id":"394","icono":"1","nombre":"Tuy","lat":"-8.646498","lng":"42.043353","html":null,"htmlp":null,"link":"http:\/\/www.furgovw.org\/index.php?topic=11816.0;topicseen","imagen":"http:\/\/www.furgovw.org\/mapa_imagenes\/areacabarcenocartelxi1_1.jpg","autor":"falco_vw","ancho":"140","alto":"241","destomtom":"Gratuito: si Pernocta: si WC: no Agua:si","id_member":"108","date":null,"topic_id":"11816"},{"id":"396","icono":"1","nombre":"A Pontenova","lat":"-7.185606","lng":"43.355293","html":null,"htmlp":null,"link":"http:\/\/www.furgovw.org\/index.php?topic=11877.0","imagen":"http:\/\/www.furgovw.org\/mapa_imagenes\/pontenova01JPG.jpg","autor":"kalimocho","ancho":"140","alto":"93","destomtom":"Gratuito; Agua: si; Wc: No","id_member":"4","date":null,"topic_id":"11877"},{"id":"398","icono":"1","nombre":"A Coru\u00f1a","lat":"-8.444425","lng":"43.371794","html":null,"htmlp":null,"link":"http:\/\/www.furgovw.org\/index.php?topic=11883.0","imagen":"http:\/\/www.furgovw.org\/mapa_imagenes\/acorua02.jpg","autor":"kalimocho","ancho":"140","alto":"105","destomtom":"Gratuito: Si, Pernocta: Si, WC: Si, Agua: Si","id_member":"4","date":null,"topic_id":"11883"},